[{"property_id":5557.0,"lat":-37.790287,"lng":144.851058,"addr_street":"18 Arthur Street","price":3910000.0,"property_type":"house","year":2013.0,"bedrooms":3.0,"bathrooms":1.0,"parking_space":1.0},{"property_id":79731.0,"lat":-37.997261,"lng":145.149779,"addr_street":"16 Emmaline Crescent","price":6200000.0,"property_type":"house","year":2012.0,"bedrooms":3.0,"bathrooms":2.0,"parking_space":2.0},{"property_id":6281.0,"lat":-37.789166,"lng":144.842816,"addr_street":"17 Union Street","price":6960000.0,"property_type":"house","year":2010.0,"bedrooms":3.0,"bathrooms":1.0,"parking_space":2.0},{"property_id":31038.0,"lat":-37.758343,"lng":145.021371,"addr_street":"269 Mansfield Street","price":7950000.0,"property_type":"house","year":2016.0,"bedrooms":4.0,"bathrooms":1.0,"parking_space":0.0},{"property_id":21307.0,"lat":-37.765106,"lng":144.964796,"addr_street":"5 Edmends Street","price":14560000.0,"property_type":"house","year":2014.0,"bedrooms":2.0,"bathrooms":1.0,"parking_space":1.0},{"property_id":56807.0,"lat":-37.84861,"lng":145.109491,"addr_street":"6 Elgar Road","price":4995000.0,"property_type":"house","year":2016.0,"bedrooms":3.0,"bathrooms":1.0,"parking_space":2.0},{"property_id":86453.0,"lat":-37.9111409,"lng":144.9898839,"addr_street":"27 Normanby Street","price":6303000.0,"property_type":"house","year":2013.0,"bedrooms":4.0,"bathrooms":2.0,"parking_space":3.0},{"property_id":7690.0,"lat":-37.776264,"lng":144.799805,"addr_street":"1 Glinden Avenue","price":4680000.0,"property_type":"house","year":2011.0,"bedrooms":3.0,"bathrooms":1.0,"parking_space":1.0},{"property_id":89501.0,"lat":-37.9487856,"lng":145.0154474,"addr_street":"39 Hobson Street","price":9630000.0,"property_type":"house","year":2014.0,"bedrooms":3.0,"bathrooms":2.0,"parking_space":2.0},{"property_id":33372.0,"lat":-37.69631,"lng":145.021222,"addr_street":"1 Keon Parade","price":5040000.0,"property_type":"house","year":2014.0,"bedrooms":4.0,"bathrooms":2.0,"parking_space":1.0},{"property_id":15754.0,"lat":-37.735953,"lng":144.882512,"addr_street":"43 Hotham Road","price":6050000.0,"property_type":"house","year":2015.0,"bedrooms":2.0,"bathrooms":1.0,"parking_space":2.0},{"property_id":81166.0,"lat":-37.975125,"lng":145.197984,"addr_street":"31 King George Parade","price":4020000.0,"property_type":"house","year":2015.0,"bedrooms":4.0,"bathrooms":1.0,"parking_space":2.0},{"property_id":85135.0,"lat":-37.87537,"lng":144.977574,"addr_street":"83 Dickens Street","price":14040000.0,"property_type":"house","year":2011.0,"bedrooms":3.0,"bathrooms":1.0,"parking_space":1.0},{"property_id":46685.0,"lat":-37.708078,"lng":145.158551,"addr_street":"16 Renshaw Drive","price":9490000.0,"property_type":"house","year":2016.0,"bedrooms":4.0,"bathrooms":2.0,"parking_space":2.0},{"property_id":69069.0,"lat":-37.867569,"lng":145.037452,"addr_street":"31 Hunter Street","price":12080000.0,"property_type":"house","year":2012.0,"bedrooms":3.0,"bathrooms":2.0,"parking_space":1.0},{"property_id":60144.0,"lat":-37.81932831,"lng":145.2010803,"addr_street":"6 Holly Court","price":8415000.0,"property_type":"house","year":2009.0,"bedrooms":3.0,"bathrooms":1.0,"parking_space":1.0},{"property_id":3605.0,"lat":-37.817674,"lng":144.865553,"addr_street":"49 Urwin Street","price":7930000.0,"property_type":"house","year":2012.0,"bedrooms":3.0,"bathrooms":1.0,"parking_space":3.0},{"property_id":95212.0,"lat":-37.903471,"lng":145.051526,"addr_street":"22 Wallen Road","price":12428000.0,"property_type":"house","year":2014.0,"bedrooms":3.0,"bathrooms":1.0,"parking_space":1.0},{"property_id":33533.0,"lat":-37.727976,"lng":145.035385,"addr_street":"10 Nisbett Street","price":5016000.0,"property_type":"house","year":2012.0,"bedrooms":3.0,"bathrooms":1.0,"parking_space":2.0},{"property_id":58031.0,"lat":-37.824082,"lng":145.137885,"addr_street":"348 Middleborough Road","price":9350000.0,"property_type":"house","year":2012.0,"bedrooms":2.0,"bathrooms":1.0,"parking_space":1.0},{"property_id":68483.0,"lat":-37.857141,"lng":145.025811,"addr_street":"32 Seymour Avenue","price":25920000.0,"property_type":"house","year":2013.0,"bedrooms":3.0,"bathrooms":2.0,"parking_space":2.0},{"property_id":22721.0,"lat":-37.746308,"lng":144.967818,"addr_street":"39 Sheffield Street","price":6120000.0,"property_type":"house","year":2015.0,"bedrooms":3.0,"bathrooms":1.0,"parking_space":2.0},{"property_id":32062.0,"lat":-37.741713,"lng":145.013154,"addr_street":"177 Gower Street","price":10608000.0,"property_type":"house","year":2014.0,"bedrooms":2.0,"bathrooms":1.0,"parking_space":0.0},{"property_id":41962.0,"lat":-37.74686813,"lng":145.0893707,"addr_street":"26 Somerset Drive","price":4203000.0,"property_type":"house","year":2008.0,"bedrooms":3.0,"bathrooms":1.0,"parking_space":1.0},{"property_id":26664.0,"lat":-37.583256,"lng":144.922234,"addr_street":"37 Hurlingham Way","price":2440000.0,"property_type":"house","year":2012.0,"bedrooms":3.0,"bathrooms":2.0,"parking_space":1.0},{"property_id":84948.0,"lat":-37.876348,"lng":144.989413,"addr_street":"40 Mason Avenue","price":13310000.0,"property_type":"house","year":2014.0,"bedrooms":3.0,"bathrooms":1.0,"parking_space":0.0},{"property_id":89825.0,"lat":-37.964864,"lng":145.079842,"addr_street":"10 Kristine Court","price":8775000.0,"property_type":"house","year":2013.0,"bedrooms":4.0,"bathrooms":2.0,"parking_space":1.0},{"property_id":1072.0,"lat":-37.797406,"lng":144.89978,"addr_street":"46 Nicholson Street","price":7965000.0,"property_type":"house","year":2010.0,"bedrooms":3.0,"bathrooms":2.0,"parking_space":1.0},{"property_id":47601.0,"lat":-37.709734,"lng":145.159478,"addr_street":"89 Livingstone Road","price":5715000.0,"property_type":"house","year":2015.0,"bedrooms":3.0,"bathrooms":2.0,"parking_space":2.0},{"property_id":93140.0,"lat":-38.00738525,"lng":145.1008148,"addr_street":"3 Besanko Close","price":7150000.0,"property_type":"house","year":2009.0,"bedrooms":4.0,"bathrooms":2.0,"parking_space":2.0},{"property_id":13878.0,"lat":-37.75162125,"lng":144.9011536,"addr_street":"15 Mountain Street","price":11990000.0,"property_type":"house","year":2008.0,"bedrooms":3.0,"bathrooms":1.0,"parking_space":1.0},{"property_id":90840.0,"lat":-37.957578,"lng":145.068752,"addr_street":"5-7 Joami Street","price":7720000.0,"property_type":"house","year":2014.0,"bedrooms":4.0,"bathrooms":3.0,"parking_space":3.0},{"property_id":74405.0,"lat":-37.884432,"lng":145.032775,"addr_street":"9 Blake Street","price":12600000.0,"property_type":"house","year":2010.0,"bedrooms":4.0,"bathrooms":2.0,"parking_space":2.0},{"property_id":78289.0,"lat":-37.9251792,"lng":145.1672271,"addr_street":"65 Wanda Street","price":5100000.0,"property_type":"house","year":2013.0,"bedrooms":3.0,"bathrooms":1.0,"parking_space":1.0},{"property_id":32889.0,"lat":-37.731534,"lng":145.001533,"addr_street":"5 Parker Street","price":9440000.0,"property_type":"house","year":2014.0,"bedrooms":3.0,"bathrooms":1.0,"parking_space":3.0},{"property_id":51290.0,"lat":-37.791513,"lng":145.111531,"addr_street":"34 Harcourt Street","price":14912000.0,"property_type":"house","year":2016.0,"bedrooms":4.0,"bathrooms":2.0,"parking_space":2.0},{"property_id":19026.0,"lat":-37.6873436,"lng":144.9252319,"addr_street":"57 Meredith Street","price":3641000.0,"property_type":"house","year":2008.0,"bedrooms":3.0,"bathrooms":1.0,"parking_space":2.0},{"property_id":45264.0,"lat":-37.703673,"lng":145.094539,"addr_street":"54 Adeline Street","price":5280000.0,"property_type":"house","year":2016.0,"bedrooms":3.0,"bathrooms":3.0,"parking_space":2.0},{"property_id":41608.0,"lat":-37.735298,"lng":145.061663,"addr_street":"140 Mountain View Parade","price":8710000.0,"property_type":"house","year":2011.0,"bedrooms":4.0,"bathrooms":2.0,"parking_space":3.0},{"property_id":79801.0,"lat":-38.001757,"lng":145.146076,"addr_street":"18 Stanford Avenue","price":9880000.0,"property_type":"house","year":2014.0,"bedrooms":4.0,"bathrooms":2.0,"parking_space":2.0},{"property_id":70248.0,"lat":-37.870094,"lng":145.082692,"addr_street":"63 Victory Boulevard","price":21450000.0,"property_type":"house","year":2015.0,"bedrooms":3.0,"bathrooms":1.0,"parking_space":2.0},{"property_id":27051.0,"lat":-37.572735,"lng":144.917453,"addr_street":"49 Huntington Drive","price":3850000.0,"property_type":"house","year":2013.0,"bedrooms":3.0,"bathrooms":2.0,"parking_space":1.0},{"property_id":82137.0,"lat":-37.980523,"lng":145.235621,"addr_street":"37 Scarlet Drive","price":5568000.0,"property_type":"house","year":2016.0,"bedrooms":2.0,"bathrooms":1.0,"parking_space":1.0},{"property_id":79285.0,"lat":-37.953226,"lng":145.141767,"addr_street":"64 Ellen Street","price":6300000.0,"property_type":"house","year":2015.0,"bedrooms":3.0,"bathrooms":1.0,"parking_space":1.0},{"property_id":4266.0,"lat":-37.843306,"lng":144.870192,"addr_street":"21 Laurie Street","price":10030000.0,"property_type":"house","year":2008.0,"bedrooms":3.0,"bathrooms":1.0,"parking_space":3.0},{"property_id":50765.0,"lat":-37.79241,"lng":145.141089,"addr_street":"12 Coolabah Street","price":5330000.0,"property_type":"house","year":2011.0,"bedrooms":3.0,"bathrooms":1.0,"parking_space":1.0},{"property_id":87687.0,"lat":-37.942526,"lng":145.011965,"addr_street":"4 David Street","price":5600000.0,"property_type":"house","year":2016.0,"bedrooms":5.0,"bathrooms":2.0,"parking_space":2.0},{"property_id":83083.0,"lat":-37.891634,"lng":145.245172,"addr_street":"2\/39 Laura Road","price":4630000.0,"property_type":"house","year":2012.0,"bedrooms":3.0,"bathrooms":2.0,"parking_space":2.0},{"property_id":50307.0,"lat":-37.779045,"lng":145.096014,"addr_street":"57 Estelle Street","price":3176000.0,"property_type":"house","year":2012.0,"bedrooms":3.0,"bathrooms":2.0,"parking_space":2.0},{"property_id":21765.0,"lat":-37.745517,"lng":144.964318,"addr_street":"10 Walker Street","price":8320000.0,"property_type":"house","year":2009.0,"bedrooms":3.0,"bathrooms":1.0,"parking_space":0.0},{"property_id":21197.0,"lat":-37.765864,"lng":144.970833,"addr_street":"4 Lawrence Street","price":7064000.0,"property_type":"house","year":2016.0,"bedrooms":2.0,"bathrooms":1.0,"parking_space":1.0},{"property_id":46213.0,"lat":-37.725928,"lng":145.130844,"addr_street":"69 Buena Vista Drive","price":9860000.0,"property_type":"house","year":2013.0,"bedrooms":3.0,"bathrooms":2.0,"parking_space":2.0},{"property_id":50948.0,"lat":-37.779879,"lng":145.104031,"addr_street":"1A Norweena Street","price":23120000.0,"property_type":"house","year":2015.0,"bedrooms":4.0,"bathrooms":2.0,"parking_space":2.0},{"property_id":24885.0,"lat":-37.59608841,"lng":144.9391785,"addr_street":"1 Hilton Street","price":4080000.0,"property_type":"house","year":2009.0,"bedrooms":3.0,"bathrooms":1.0,"parking_space":2.0},{"property_id":84068.0,"lat":-37.850096,"lng":144.99519,"addr_street":"47 Clifton Street","price":9780000.0,"property_type":"house","year":2016.0,"bedrooms":2.0,"bathrooms":1.0,"parking_space":0.0},{"property_id":42512.0,"lat":-37.75356293,"lng":145.0623016,"addr_street":"68 Darebin Street","price":9675000.0,"property_type":"house","year":2008.0,"bedrooms":3.0,"bathrooms":1.0,"parking_space":0.0},{"property_id":14092.0,"lat":-37.752705,"lng":144.895948,"addr_street":"22 Nimmo Street","price":13380000.0,"property_type":"house","year":2014.0,"bedrooms":2.0,"bathrooms":1.0,"parking_space":2.0},{"property_id":71779.0,"lat":-37.856391,"lng":145.225664,"addr_street":"70 Amersham Drive","price":13920000.0,"property_type":"house","year":2012.0,"bedrooms":4.0,"bathrooms":2.0,"parking_space":2.0},{"property_id":90871.0,"lat":-37.960334,"lng":145.060801,"addr_street":"6 Freda Avenue","price":5040000.0,"property_type":"house","year":2010.0,"bedrooms":4.0,"bathrooms":1.0,"parking_space":3.0},{"property_id":45296.0,"lat":-37.694039,"lng":145.096719,"addr_street":"57 Pinehills Drive","price":6435000.0,"property_type":"house","year":2013.0,"bedrooms":4.0,"bathrooms":1.0,"parking_space":0.0},{"property_id":9386.0,"lat":-37.84666,"lng":144.722605,"addr_street":"21 Barmera Way","price":5070000.0,"property_type":"house","year":2016.0,"bedrooms":4.0,"bathrooms":2.0,"parking_space":2.0},{"property_id":262.0,"lat":-37.80714035,"lng":144.8998718,"addr_street":"12 Hyde Street","price":7425000.0,"property_type":"house","year":2009.0,"bedrooms":3.0,"bathrooms":1.0,"parking_space":3.0},{"property_id":3327.0,"lat":-37.820278,"lng":144.885504,"addr_street":"3\/160 Francis street","price":8030000.0,"property_type":"house","year":2015.0,"bedrooms":3.0,"bathrooms":2.0,"parking_space":2.0},{"property_id":14960.0,"lat":-37.741555,"lng":144.930275,"addr_street":"11 Talbot Road","price":15616000.0,"property_type":"house","year":2015.0,"bedrooms":4.0,"bathrooms":2.0,"parking_space":2.0},{"property_id":70436.0,"lat":-37.88819,"lng":145.10331,"addr_street":"1\/19 Kalymna Grove","price":6880000.0,"property_type":"house","year":2014.0,"bedrooms":3.0,"bathrooms":2.0,"parking_space":2.0},{"property_id":42006.0,"lat":-37.760669,"lng":145.063587,"addr_street":"29 Hawdon Street","price":24650000.0,"property_type":"house","year":2010.0,"bedrooms":3.0,"bathrooms":1.0,"parking_space":1.0},{"property_id":50050.0,"lat":-37.774364,"lng":145.086762,"addr_street":"22 Barak Street","price":8645000.0,"property_type":"house","year":2012.0,"bedrooms":3.0,"bathrooms":2.0,"parking_space":2.0},{"property_id":48216.0,"lat":-37.815008,"lng":145.052279,"addr_street":"28A Macartney Avenue","price":19600000.0,"property_type":"house","year":2014.0,"bedrooms":3.0,"bathrooms":2.0,"parking_space":2.0},{"property_id":77109.0,"lat":-37.944286,"lng":145.10153,"addr_street":"141 Elder Street South","price":21450000.0,"property_type":"house","year":2012.0,"bedrooms":3.0,"bathrooms":2.0,"parking_space":2.0},{"property_id":40015.0,"lat":-37.715086,"lng":145.041234,"addr_street":"20 Ellerslie Street","price":5440000.0,"property_type":"house","year":2010.0,"bedrooms":3.0,"bathrooms":1.0,"parking_space":1.0},{"property_id":81629.0,"lat":-37.99880219,"lng":145.2464905,"addr_street":"1\/30 Olive Road","price":2940000.0,"property_type":"house","year":2009.0,"bedrooms":2.0,"bathrooms":1.0,"parking_space":1.0},{"property_id":6002.0,"lat":-37.784473,"lng":144.839513,"addr_street":"10 Brislington Street","price":4500000.0,"property_type":"house","year":2011.0,"bedrooms":3.0,"bathrooms":2.0,"parking_space":1.0},{"property_id":24651.0,"lat":-37.677865,"lng":144.961559,"addr_street":"13 Myrtle Street","price":5180000.0,"property_type":"house","year":2014.0,"bedrooms":3.0,"bathrooms":1.0,"parking_space":3.0},{"property_id":41896.0,"lat":-37.749794,"lng":145.066947,"addr_street":"23 Manton Street","price":8176000.0,"property_type":"house","year":2012.0,"bedrooms":3.0,"bathrooms":1.0,"parking_space":1.0},{"property_id":64206.0,"lat":-37.791974,"lng":145.271584,"addr_street":"3 Woodland Avenue","price":10700000.0,"property_type":"house","year":2014.0,"bedrooms":5.0,"bathrooms":3.0,"parking_space":3.0},{"property_id":56274.0,"lat":-37.855468,"lng":145.126959,"addr_street":"17 Malvina Street","price":13320000.0,"property_type":"house","year":2015.0,"bedrooms":3.0,"bathrooms":1.0,"parking_space":1.0},{"property_id":23318.0,"lat":-37.61272812,"lng":144.9142304,"addr_street":"1 Markham Court","price":5954000.0,"property_type":"house","year":2009.0,"bedrooms":4.0,"bathrooms":2.0,"parking_space":2.0},{"property_id":63369.0,"lat":-37.785914,"lng":145.282998,"addr_street":"103 Croydon Road","price":8336000.0,"property_type":"house","year":2013.0,"bedrooms":3.0,"bathrooms":1.0,"parking_space":1.0},{"property_id":96128.0,"lat":-37.898429,"lng":145.044403,"addr_street":"6A Oakleigh Road","price":19350000.0,"property_type":"house","year":2012.0,"bedrooms":5.0,"bathrooms":2.0,"parking_space":2.0},{"property_id":89033.0,"lat":-37.945798,"lng":145.038055,"addr_street":"8 Monamie Avenue","price":10620000.0,"property_type":"house","year":2014.0,"bedrooms":2.0,"bathrooms":1.0,"parking_space":1.0},{"property_id":42863.0,"lat":-37.71921158,"lng":145.0585175,"addr_street":"15 Heritage Court","price":10200000.0,"property_type":"house","year":2008.0,"bedrooms":4.0,"bathrooms":3.0,"parking_space":2.0},{"property_id":9906.0,"lat":-37.786866,"lng":144.923763,"addr_street":"10 Coronet Street","price":8580000.0,"property_type":"house","year":2011.0,"bedrooms":3.0,"bathrooms":1.0,"parking_space":0.0},{"property_id":21989.0,"lat":-37.74348068,"lng":144.958252,"addr_street":"14 Wellington Street","price":9888000.0,"property_type":"house","year":2009.0,"bedrooms":4.0,"bathrooms":1.0,"parking_space":1.0},{"property_id":46111.0,"lat":-37.721332,"lng":145.12344,"addr_street":"47 Looker  Road","price":9114000.0,"property_type":"house","year":2014.0,"bedrooms":3.0,"bathrooms":1.0,"parking_space":0.0},{"property_id":66265.0,"lat":-37.775823,"lng":145.317927,"addr_street":"34 Ross Pincott Drive","price":4750000.0,"property_type":"house","year":2016.0,"bedrooms":3.0,"bathrooms":1.0,"parking_space":2.0},{"property_id":60402.0,"lat":-37.843189,"lng":145.185195,"addr_street":"10 Bambra Court","price":4150000.0,"property_type":"house","year":2013.0,"bedrooms":3.0,"bathrooms":1.0,"parking_space":2.0},{"property_id":68635.0,"lat":-37.861566,"lng":145.027406,"addr_street":"7 Llaneast Street","price":29100000.0,"property_type":"house","year":2016.0,"bedrooms":3.0,"bathrooms":2.0,"parking_space":2.0},{"property_id":995.0,"lat":-37.800995,"lng":144.890353,"addr_street":"40 Buckingham Street","price":10332000.0,"property_type":"house","year":2015.0,"bedrooms":3.0,"bathrooms":1.0,"parking_space":1.0},{"property_id":95059.0,"lat":-37.92854691,"lng":145.0335846,"addr_street":"2 Coates Street","price":5726000.0,"property_type":"house","year":2007.0,"bedrooms":2.0,"bathrooms":1.0,"parking_space":1.0},{"property_id":87272.0,"lat":-37.936035,"lng":145.003545,"addr_street":"1\/2 Mills Street","price":16350000.0,"property_type":"house","year":2013.0,"bedrooms":3.0,"bathrooms":2.0,"parking_space":2.0},{"property_id":10547.0,"lat":-37.786059,"lng":144.923961,"addr_street":"42 Coronet Street","price":11135000.0,"property_type":"house","year":2013.0,"bedrooms":3.0,"bathrooms":1.0,"parking_space":1.0},{"property_id":80023.0,"lat":-37.98308,"lng":145.157986,"addr_street":"27 Piccadilly Crescent","price":11560000.0,"property_type":"house","year":2016.0,"bedrooms":4.0,"bathrooms":1.0,"parking_space":3.0},{"property_id":2156.0,"lat":-37.77776,"lng":144.881954,"addr_street":"31 Wattle Road","price":10640000.0,"property_type":"house","year":2013.0,"bedrooms":3.0,"bathrooms":2.0,"parking_space":1.0},{"property_id":85588.0,"lat":-37.891669,"lng":145.011873,"addr_street":"38 Hartington Street","price":12600000.0,"property_type":"house","year":2013.0,"bedrooms":3.0,"bathrooms":2.0,"parking_space":1.0},{"property_id":18670.0,"lat":-37.69136,"lng":144.934365,"addr_street":"30 Ophir Street","price":4550000.0,"property_type":"house","year":2013.0,"bedrooms":3.0,"bathrooms":1.0,"parking_space":3.0},{"property_id":71535.0,"lat":-37.850962,"lng":145.24048,"addr_street":"4 Roxburgh Road","price":9600000.0,"property_type":"house","year":2014.0,"bedrooms":3.0,"bathrooms":1.0,"parking_space":3.0},{"property_id":84374.0,"lat":-37.855594,"lng":144.99499,"addr_street":"7B Nathan Place","price":15400000.0,"property_type":"house","year":2016.0,"bedrooms":3.0,"bathrooms":2.0,"parking_space":1.0},{"property_id":70664.0,"lat":-37.889129,"lng":145.093112,"addr_street":"24 Cole Cres","price":10220000.0,"property_type":"house","year":2010.0,"bedrooms":3.0,"bathrooms":1.0,"parking_space":1.0},{"property_id":47946.0,"lat":-37.801164,"lng":145.04345,"addr_street":"158 Eglinton Street","price":17600000.0,"property_type":"house","year":2013.0,"bedrooms":4.0,"bathrooms":2.0,"parking_space":1.0},{"property_id":84067.0,"lat":-37.85011292,"lng":144.9952698,"addr_street":"47 Clifton Street","price":7172000.0,"property_type":"house","year":2008.0,"bedrooms":2.0,"bathrooms":1.0,"parking_space":0.0},{"property_id":39493.0,"lat":-37.682811,"lng":145.051762,"addr_street":"11 Windmill Street","price":14240000.0,"property_type":"house","year":2016.0,"bedrooms":4.0,"bathrooms":2.0,"parking_space":2.0},{"property_id":28498.0,"lat":-37.797168,"lng":144.992208,"addr_street":"139 Hotham Street","price":10608000.0,"property_type":"house","year":2012.0,"bedrooms":2.0,"bathrooms":1.0,"parking_space":0.0},{"property_id":57973.0,"lat":-37.830995,"lng":145.153923,"addr_street":"3 Windermere Court","price":4180000.0,"property_type":"house","year":2016.0,"bedrooms":4.0,"bathrooms":2.0,"parking_space":2.0},{"property_id":77527.0,"lat":-37.920868,"lng":145.171454,"addr_street":"15 Anora Crescent","price":7260000.0,"property_type":"house","year":2016.0,"bedrooms":3.0,"bathrooms":1.0,"parking_space":2.0},{"property_id":89189.0,"lat":-37.95381546,"lng":145.0067139,"addr_street":"13 Tennyson Street","price":11895000.0,"property_type":"house","year":2009.0,"bedrooms":2.0,"bathrooms":1.0,"parking_space":1.0},{"property_id":92906.0,"lat":-38.00199,"lng":145.092243,"addr_street":"2 Francis Street","price":8996000.0,"property_type":"house","year":2013.0,"bedrooms":3.0,"bathrooms":1.0,"parking_space":1.0},{"property_id":4905.0,"lat":-37.872117,"lng":144.815198,"addr_street":"14 Myrtle Grove","price":3520000.0,"property_type":"house","year":2013.0,"bedrooms":3.0,"bathrooms":2.0,"parking_space":3.0},{"property_id":85613.0,"lat":-37.882886,"lng":145.012896,"addr_street":"4 Meaney Street","price":9060000.0,"property_type":"house","year":2016.0,"bedrooms":2.0,"bathrooms":1.0,"parking_space":1.0},{"property_id":59249.0,"lat":-37.827572,"lng":145.192829,"addr_street":"1\/4 Alwyn Court","price":9225000.0,"property_type":"house","year":2012.0,"bedrooms":3.0,"bathrooms":2.0,"parking_space":1.0},{"property_id":30572.0,"lat":-37.754527,"lng":144.989216,"addr_street":"104 Hutton Street","price":15334000.0,"property_type":"house","year":2012.0,"bedrooms":3.0,"bathrooms":1.0,"parking_space":1.0},{"property_id":20446.0,"lat":-37.775386,"lng":144.969183,"addr_street":"125 Weston Street","price":7850000.0,"property_type":"house","year":2014.0,"bedrooms":2.0,"bathrooms":1.0,"parking_space":0.0},{"property_id":29563.0,"lat":-37.770787,"lng":144.988372,"addr_street":"17 Traill Street","price":15210000.0,"property_type":"house","year":2014.0,"bedrooms":3.0,"bathrooms":1.0,"parking_space":1.0},{"property_id":21178.0,"lat":-37.76707077,"lng":144.9663849,"addr_street":"4 Bennie Street","price":4455000.0,"property_type":"house","year":2006.0,"bedrooms":2.0,"bathrooms":1.0,"parking_space":0.0},{"property_id":14462.0,"lat":-37.75024414,"lng":144.8949738,"addr_street":"42A Price Street","price":10500000.0,"property_type":"house","year":2009.0,"bedrooms":3.0,"bathrooms":2.0,"parking_space":1.0},{"property_id":78201.0,"lat":-37.92887878,"lng":145.1988983,"addr_street":"57 Grantham Terrace","price":6050000.0,"property_type":"house","year":2008.0,"bedrooms":4.0,"bathrooms":2.0,"parking_space":2.0},{"property_id":18438.0,"lat":-37.66793,"lng":144.932893,"addr_street":"206 Blair Street","price":3498000.0,"property_type":"house","year":2016.0,"bedrooms":3.0,"bathrooms":1.0,"parking_space":1.0},{"property_id":43173.0,"lat":-37.719516,"lng":145.076594,"addr_street":"49 Stewart Terrace","price":5640000.0,"property_type":"house","year":2009.0,"bedrooms":2.0,"bathrooms":1.0,"parking_space":2.0},{"property_id":53268.0,"lat":-37.828394,"lng":145.011578,"addr_street":"41 Parkville Street","price":9720000.0,"property_type":"house","year":2011.0,"bedrooms":3.0,"bathrooms":2.0,"parking_space":1.0},{"property_id":9846.0,"lat":-37.903728,"lng":144.631974,"addr_street":"52 St Andrews Drive","price":5115000.0,"property_type":"house","year":2014.0,"bedrooms":3.0,"bathrooms":2.0,"parking_space":2.0},{"property_id":66933.0,"lat":-37.74331665,"lng":145.3454132,"addr_street":"11 Rimfire Court","price":5940000.0,"property_type":"house","year":2009.0,"bedrooms":3.0,"bathrooms":2.0,"parking_space":1.0},{"property_id":16707.0,"lat":-37.700614,"lng":144.907644,"addr_street":"19 Valley Crescent","price":3465000.0,"property_type":"house","year":2014.0,"bedrooms":4.0,"bathrooms":2.0,"parking_space":3.0},{"property_id":69364.0,"lat":-37.869154,"lng":145.10138,"addr_street":"1 Mulgrave Street","price":13920000.0,"property_type":"house","year":2016.0,"bedrooms":4.0,"bathrooms":3.0,"parking_space":3.0},{"property_id":48262.0,"lat":-37.80281067,"lng":145.0522919,"addr_street":"3 Simpson Street","price":12100000.0,"property_type":"house","year":2009.0,"bedrooms":3.0,"bathrooms":1.0,"parking_space":2.0},{"property_id":21077.0,"lat":-37.771343,"lng":144.951455,"addr_street":"33 Munro Street","price":7389000.0,"property_type":"house","year":2014.0,"bedrooms":2.0,"bathrooms":1.0,"parking_space":0.0},{"property_id":34674.0,"lat":-37.727252,"lng":145.032331,"addr_street":"31 Summerhill  Road","price":6188000.0,"property_type":"house","year":2013.0,"bedrooms":3.0,"bathrooms":1.0,"parking_space":3.0},{"property_id":23006.0,"lat":-37.737027,"lng":144.979174,"addr_street":"6 Grey Court","price":7932000.0,"property_type":"house","year":2010.0,"bedrooms":2.0,"bathrooms":1.0,"parking_space":1.0},{"property_id":72094.0,"lat":-37.83971786,"lng":145.2619171,"addr_street":"17 View Road","price":4428000.0,"property_type":"house","year":2007.0,"bedrooms":3.0,"bathrooms":1.0,"parking_space":2.0},{"property_id":5710.0,"lat":-37.788655,"lng":144.84939,"addr_street":"30 Moama Street","price":8250000.0,"property_type":"house","year":2015.0,"bedrooms":3.0,"bathrooms":1.0,"parking_space":1.0},{"property_id":8597.0,"lat":-37.7475853,"lng":144.743866,"addr_street":"6 Saxby Court","price":6647000.0,"property_type":"house","year":2009.0,"bedrooms":3.0,"bathrooms":2.0,"parking_space":2.0},{"property_id":23119.0,"lat":-37.747954,"lng":144.951132,"addr_street":"71  Saunders Street","price":11237000.0,"property_type":"house","year":2015.0,"bedrooms":3.0,"bathrooms":1.0,"parking_space":2.0},{"property_id":16683.0,"lat":-37.696179,"lng":144.918073,"addr_street":"189 Daley Street","price":2832000.0,"property_type":"house","year":2012.0,"bedrooms":3.0,"bathrooms":1.0,"parking_space":0.0},{"property_id":22058.0,"lat":-37.75425,"lng":144.967163,"addr_street":"16 Moore Street","price":6723000.0,"property_type":"house","year":2014.0,"bedrooms":3.0,"bathrooms":1.0,"parking_space":1.0},{"property_id":85772.0,"lat":-37.890837,"lng":145.01324,"addr_street":"61 Trevelyan Street","price":19370000.0,"property_type":"house","year":2014.0,"bedrooms":5.0,"bathrooms":2.0,"parking_space":2.0},{"property_id":4817.0,"lat":-37.859762,"lng":144.843579,"addr_street":"10 Noordenne Avenue","price":7875000.0,"property_type":"house","year":2010.0,"bedrooms":3.0,"bathrooms":1.0,"parking_space":1.0},{"property_id":61344.0,"lat":-37.780513,"lng":145.251059,"addr_street":"155 Plymouth Road","price":7728000.0,"property_type":"house","year":2012.0,"bedrooms":3.0,"bathrooms":1.0,"parking_space":0.0},{"property_id":40241.0,"lat":-37.702625,"lng":145.063414,"addr_street":"28 Noorong Avenue","price":7840000.0,"property_type":"house","year":2014.0,"bedrooms":3.0,"bathrooms":1.0,"parking_space":1.0},{"property_id":58081.0,"lat":-37.827959,"lng":145.165881,"addr_street":"4 Clifton Street","price":11900000.0,"property_type":"house","year":2010.0,"bedrooms":3.0,"bathrooms":2.0,"parking_space":1.0},{"property_id":39344.0,"lat":-37.693414,"lng":145.064136,"addr_street":"1\/4 Gray Court","price":8255000.0,"property_type":"house","year":2016.0,"bedrooms":3.0,"bathrooms":3.0,"parking_space":2.0},{"property_id":4689.0,"lat":-37.8424076,"lng":144.8737626,"addr_street":"81 Speight Street","price":10220000.0,"property_type":"house","year":2013.0,"bedrooms":3.0,"bathrooms":2.0,"parking_space":2.0},{"property_id":23127.0,"lat":-37.749284,"lng":144.953301,"addr_street":"72 Clarendon Street","price":6930000.0,"property_type":"house","year":2014.0,"bedrooms":2.0,"bathrooms":1.0,"parking_space":2.0},{"property_id":87019.0,"lat":-37.915344,"lng":144.992422,"addr_street":"7 Chavasse Street","price":15040000.0,"property_type":"house","year":2016.0,"bedrooms":3.0,"bathrooms":2.0,"parking_space":2.0},{"property_id":77012.0,"lat":-37.923832,"lng":145.125991,"addr_street":"84 Kanooka Grove","price":7280000.0,"property_type":"house","year":2009.0,"bedrooms":3.0,"bathrooms":1.0,"parking_space":0.0},{"property_id":19228.0,"lat":-37.672891,"lng":144.942809,"addr_street":"80 GEACH STREET","price":3685000.0,"property_type":"house","year":2009.0,"bedrooms":3.0,"bathrooms":1.0,"parking_space":1.0},{"property_id":46714.0,"lat":-37.728112,"lng":145.13596,"addr_street":"172 Bolton Street","price":5915000.0,"property_type":"house","year":2013.0,"bedrooms":3.0,"bathrooms":1.0,"parking_space":3.0},{"property_id":19527.0,"lat":-37.66989,"lng":144.896759,"addr_street":"10 Davidson Court","price":4050000.0,"property_type":"house","year":2014.0,"bedrooms":3.0,"bathrooms":1.0,"parking_space":2.0},{"property_id":94409.0,"lat":-37.95553207,"lng":145.0809784,"addr_street":"6 Spyglass Close","price":3015000.0,"property_type":"house","year":2008.0,"bedrooms":3.0,"bathrooms":2.0,"parking_space":1.0},{"property_id":59506.0,"lat":-37.80695724,"lng":145.1963654,"addr_street":"18 McKeon Road","price":4510000.0,"property_type":"house","year":2008.0,"bedrooms":3.0,"bathrooms":1.0,"parking_space":1.0},{"property_id":40898.0,"lat":-37.70218,"lng":145.058483,"addr_street":"594 Morwell Avenue","price":6570000.0,"property_type":"house","year":2014.0,"bedrooms":3.0,"bathrooms":1.0,"parking_space":2.0},{"property_id":29256.0,"lat":-37.770542,"lng":144.992314,"addr_street":"11 Hawthorn Road","price":12120000.0,"property_type":"house","year":2012.0,"bedrooms":3.0,"bathrooms":1.0,"parking_space":2.0},{"property_id":8123.0,"lat":-37.766073,"lng":144.779372,"addr_street":"15 Barrwang Street","price":5978000.0,"property_type":"house","year":2013.0,"bedrooms":4.0,"bathrooms":2.0,"parking_space":2.0},{"property_id":77756.0,"lat":-37.93240738,"lng":145.1635132,"addr_street":"23 Studley Street","price":3445000.0,"property_type":"house","year":2009.0,"bedrooms":3.0,"bathrooms":1.0,"parking_space":2.0},{"property_id":77848.0,"lat":-37.923869,"lng":145.168503,"addr_street":"29 Lea Road","price":11100000.0,"property_type":"house","year":2016.0,"bedrooms":3.0,"bathrooms":2.0,"parking_space":1.0},{"property_id":46963.0,"lat":-37.709104,"lng":145.139624,"addr_street":"29 Kerrie Crescent","price":8664000.0,"property_type":"house","year":2015.0,"bedrooms":3.0,"bathrooms":2.0,"parking_space":0.0},{"property_id":5165.0,"lat":-37.862319,"lng":144.845487,"addr_street":"36 Simmons Drive","price":8350000.0,"property_type":"house","year":2015.0,"bedrooms":3.0,"bathrooms":1.0,"parking_space":2.0},{"property_id":85580.0,"lat":-37.888427,"lng":145.010692,"addr_street":"37 Parkside Street","price":12400000.0,"property_type":"house","year":2010.0,"bedrooms":4.0,"bathrooms":1.0,"parking_space":3.0},{"property_id":55867.0,"lat":-37.834318,"lng":145.066852,"addr_street":"65 Bellett Street","price":4500000.0,"property_type":"house","year":2010.0,"bedrooms":4.0,"bathrooms":2.0,"parking_space":2.0},{"property_id":22160.0,"lat":-37.75011444,"lng":144.9620056,"addr_street":"19 Audley Street","price":6240000.0,"property_type":"house","year":2009.0,"bedrooms":3.0,"bathrooms":1.0,"parking_space":1.0},{"property_id":28110.0,"lat":-37.800677,"lng":144.978742,"addr_street":"15 Kent Street","price":5174000.0,"property_type":"house","year":2016.0,"bedrooms":4.0,"bathrooms":3.0,"parking_space":1.0},{"property_id":62090.0,"lat":-37.821065,"lng":145.240092,"addr_street":"53 Heathmont Road","price":9910000.0,"property_type":"house","year":2015.0,"bedrooms":4.0,"bathrooms":2.0,"parking_space":0.0},{"property_id":78658.0,"lat":-37.954544,"lng":145.150759,"addr_street":"15\/8 St James Avenue","price":3648000.0,"property_type":"house","year":2013.0,"bedrooms":1.0,"bathrooms":1.0,"parking_space":1.0},{"property_id":66573.0,"lat":-37.762328,"lng":145.331701,"addr_street":"6 Trenton Place","price":5700000.0,"property_type":"house","year":2013.0,"bedrooms":4.0,"bathrooms":3.0,"parking_space":2.0},{"property_id":53184.0,"lat":-37.826853,"lng":144.994151,"addr_street":"38 White Street","price":10625000.0,"property_type":"house","year":2013.0,"bedrooms":2.0,"bathrooms":1.0,"parking_space":1.0},{"property_id":92309.0,"lat":-37.98077011,"lng":145.0903931,"addr_street":"46 Allandale Road","price":6188000.0,"property_type":"house","year":2009.0,"bedrooms":3.0,"bathrooms":1.0,"parking_space":1.0},{"property_id":55436.0,"lat":-37.835619,"lng":145.06539,"addr_street":"29 King Street","price":23520000.0,"property_type":"house","year":2012.0,"bedrooms":4.0,"bathrooms":2.0,"parking_space":2.0},{"property_id":39586.0,"lat":-37.697697,"lng":145.038789,"addr_street":"124 Holt Parade","price":4300000.0,"property_type":"house","year":2010.0,"bedrooms":3.0,"bathrooms":1.0,"parking_space":1.0},{"property_id":23358.0,"lat":-37.640604,"lng":144.908162,"addr_street":"107 kirkham Drive","price":5200000.0,"property_type":"house","year":2016.0,"bedrooms":3.0,"bathrooms":2.0,"parking_space":2.0},{"property_id":14785.0,"lat":-37.747337,"lng":144.891049,"addr_street":"78 Hoffmans Road","price":10000000.0,"property_type":"house","year":2015.0,"bedrooms":4.0,"bathrooms":2.0,"parking_space":3.0},{"property_id":38794.0,"lat":-37.77542,"lng":145.040718,"addr_street":"3 Central Avenue","price":18150000.0,"property_type":"house","year":2012.0,"bedrooms":2.0,"bathrooms":2.0,"parking_space":1.0},{"property_id":49978.0,"lat":-37.773594,"lng":145.099239,"addr_street":"18 Ralph Street","price":5160000.0,"property_type":"house","year":2011.0,"bedrooms":2.0,"bathrooms":2.0,"parking_space":2.0},{"property_id":22081.0,"lat":-37.743348,"lng":144.958259,"addr_street":"16a Wellington Street","price":6480000.0,"property_type":"house","year":2010.0,"bedrooms":3.0,"bathrooms":1.0,"parking_space":1.0},{"property_id":6832.0,"lat":-37.776469,"lng":144.820532,"addr_street":"537 Ballarat Road (Albion)","price":5100000.0,"property_type":"house","year":2013.0,"bedrooms":3.0,"bathrooms":1.0,"parking_space":0.0},{"property_id":40250.0,"lat":-37.6774419,"lng":145.0548248,"addr_street":"281 McKimmies Road","price":9520000.0,"property_type":"house","year":2013.0,"bedrooms":4.0,"bathrooms":2.0,"parking_space":2.0},{"property_id":58574.0,"lat":-37.810808,"lng":145.178054,"addr_street":"14 Lindsay Avenue","price":11625000.0,"property_type":"house","year":2015.0,"bedrooms":3.0,"bathrooms":1.0,"parking_space":2.0},{"property_id":42290.0,"lat":-37.762205,"lng":145.056174,"addr_street":"48 Alandale Road","price":16480000.0,"property_type":"house","year":2015.0,"bedrooms":2.0,"bathrooms":1.0,"parking_space":1.0},{"property_id":3552.0,"lat":-37.815297,"lng":144.879422,"addr_street":"44 Severn Street","price":13750000.0,"property_type":"house","year":2014.0,"bedrooms":3.0,"bathrooms":1.0,"parking_space":1.0},{"property_id":30548.0,"lat":-37.754643,"lng":144.994969,"addr_street":"1\/442 St Georges Road","price":11193000.0,"property_type":"house","year":2016.0,"bedrooms":4.0,"bathrooms":3.0,"parking_space":2.0},{"property_id":38723.0,"lat":-37.772678,"lng":145.04869,"addr_street":"20 Locksley Road","price":28800000.0,"property_type":"house","year":2016.0,"bedrooms":4.0,"bathrooms":2.0,"parking_space":2.0},{"property_id":60984.0,"lat":-37.834605,"lng":145.200611,"addr_street":"93 Glenburnie Road","price":7436000.0,"property_type":"house","year":2011.0,"bedrooms":4.0,"bathrooms":2.0,"parking_space":2.0},{"property_id":21153.0,"lat":-37.758184,"lng":144.966935,"addr_street":"38 Donald Street","price":11200000.0,"property_type":"house","year":2014.0,"bedrooms":2.0,"bathrooms":1.0,"parking_space":0.0},{"property_id":86042.0,"lat":-37.923191,"lng":145.000139,"addr_street":"12 Arthur Avenue","price":32810000.0,"property_type":"house","year":2010.0,"bedrooms":4.0,"bathrooms":2.0,"parking_space":2.0},{"property_id":23288.0,"lat":-37.74640274,"lng":144.9490509,"addr_street":"96 Gordon Street","price":9280000.0,"property_type":"house","year":2009.0,"bedrooms":2.0,"bathrooms":1.0,"parking_space":2.0},{"property_id":38849.0,"lat":-37.774845,"lng":145.03984,"addr_street":"34 Merton Street","price":8372000.0,"property_type":"house","year":2014.0,"bedrooms":2.0,"bathrooms":1.0,"parking_space":2.0},{"property_id":35740.0,"lat":-37.708997,"lng":144.991681,"addr_street":"9 Ida Court","price":4440000.0,"property_type":"house","year":2014.0,"bedrooms":3.0,"bathrooms":1.0,"parking_space":2.0},{"property_id":52766.0,"lat":-37.819736,"lng":144.989979,"addr_street":"237 Punt Road","price":23630000.0,"property_type":"house","year":2014.0,"bedrooms":4.0,"bathrooms":3.0,"parking_space":2.0},{"property_id":86354.0,"lat":-37.89586639,"lng":145.0019989,"addr_street":"21 Hamilton Street","price":11340000.0,"property_type":"house","year":2008.0,"bedrooms":2.0,"bathrooms":1.0,"parking_space":2.0},{"property_id":6498.0,"lat":-37.787447,"lng":144.840872,"addr_street":"25 Cooper Street","price":6647000.0,"property_type":"house","year":2010.0,"bedrooms":2.0,"bathrooms":1.0,"parking_space":1.0},{"property_id":12858.0,"lat":-37.713089,"lng":144.777321,"addr_street":"2a Currie Drive","price":3670000.0,"property_type":"house","year":2010.0,"bedrooms":3.0,"bathrooms":2.0,"parking_space":2.0},{"property_id":3245.0,"lat":-37.81938171,"lng":144.8759613,"addr_street":"270 Francis Street","price":4158000.0,"property_type":"house","year":2006.0,"bedrooms":3.0,"bathrooms":2.0,"parking_space":0.0},{"property_id":1218.0,"lat":-37.807477,"lng":144.89186,"addr_street":"58 Hobbs  Street","price":7832000.0,"property_type":"house","year":2013.0,"bedrooms":3.0,"bathrooms":1.0,"parking_space":1.0},{"property_id":16107.0,"lat":-37.704832,"lng":144.880379,"addr_street":"5\/30 Birch Avenue","price":4620000.0,"property_type":"house","year":2014.0,"bedrooms":3.0,"bathrooms":2.0,"parking_space":1.0},{"property_id":66442.0,"lat":-37.767187,"lng":145.311014,"addr_street":"4A Peter Court","price":4096000.0,"property_type":"house","year":2014.0,"bedrooms":3.0,"bathrooms":2.0,"parking_space":2.0},{"property_id":59726.0,"lat":-37.806777,"lng":145.196401,"addr_street":"26 Cobham Road","price":5400000.0,"property_type":"house","year":2015.0,"bedrooms":3.0,"bathrooms":2.0,"parking_space":2.0},{"property_id":96129.0,"lat":-37.91219711,"lng":145.0436096,"addr_street":"7 Alison Street","price":12000000.0,"property_type":"house","year":2006.0,"bedrooms":4.0,"bathrooms":2.0,"parking_space":1.0},{"property_id":15798.0,"lat":-37.738603,"lng":144.886913,"addr_street":"57 Grandview Road","price":7600000.0,"property_type":"house","year":2015.0,"bedrooms":3.0,"bathrooms":1.0,"parking_space":2.0},{"property_id":94628.0,"lat":-37.903338,"lng":145.052623,"addr_street":"11 Florence Street","price":13920000.0,"property_type":"house","year":2015.0,"bedrooms":4.0,"bathrooms":1.0,"parking_space":2.0},{"property_id":88165.0,"lat":-37.943939,"lng":145.047404,"addr_street":"25 Chapel Road","price":8010000.0,"property_type":"house","year":2015.0,"bedrooms":3.0,"bathrooms":1.0,"parking_space":1.0},{"property_id":61245.0,"lat":-37.829805,"lng":145.213706,"addr_street":"127 Heatherdale Road","price":8250000.0,"property_type":"house","year":2015.0,"bedrooms":3.0,"bathrooms":1.0,"parking_space":2.0},{"property_id":45347.0,"lat":-37.683071,"lng":145.120746,"addr_street":"6 Sunrise Drive","price":10740000.0,"property_type":"house","year":2016.0,"bedrooms":5.0,"bathrooms":3.0,"parking_space":2.0},{"property_id":71973.0,"lat":-37.844341,"lng":145.251885,"addr_street":"10 Peck Street","price":9616000.0,"property_type":"house","year":2015.0,"bedrooms":3.0,"bathrooms":1.0,"parking_space":2.0},{"property_id":56784.0,"lat":-37.859233,"lng":145.108055,"addr_street":"55 Brockhoff Drive","price":13160000.0,"property_type":"house","year":2010.0,"bedrooms":4.0,"bathrooms":2.0,"parking_space":2.0},{"property_id":37273.0,"lat":-37.6267242,"lng":145.0321936,"addr_street":"30 Cascade Crescent","price":6545000.0,"property_type":"house","year":2013.0,"bedrooms":4.0,"bathrooms":2.0,"parking_space":2.0},{"property_id":49394.0,"lat":-37.80901337,"lng":145.071991,"addr_street":"31 Hardwicke Street","price":30800000.0,"property_type":"house","year":2009.0,"bedrooms":4.0,"bathrooms":3.0,"parking_space":2.0},{"property_id":41539.0,"lat":-37.735454,"lng":145.0625526,"addr_street":"121 Grandview Grove","price":15600000.0,"property_type":"house","year":2014.0,"bedrooms":3.0,"bathrooms":3.0,"parking_space":2.0},{"property_id":59603.0,"lat":-37.825056,"lng":145.19606,"addr_street":"2\/79 Percy Street","price":7215000.0,"property_type":"house","year":2011.0,"bedrooms":3.0,"bathrooms":2.0,"parking_space":2.0},{"property_id":15068.0,"lat":-37.71889114,"lng":144.9040985,"addr_street":"190 Mascoma Street","price":4500000.0,"property_type":"house","year":2009.0,"bedrooms":3.0,"bathrooms":1.0,"parking_space":1.0},{"property_id":90972.0,"lat":-37.958431,"lng":145.043785,"addr_street":"7 Mernda Avenue","price":5390000.0,"property_type":"house","year":2016.0,"bedrooms":3.0,"bathrooms":1.0,"parking_space":0.0},{"property_id":35249.0,"lat":-37.725983,"lng":144.998462,"addr_street":"58 Powell Street","price":7350000.0,"property_type":"house","year":2015.0,"bedrooms":3.0,"bathrooms":1.0,"parking_space":3.0},{"property_id":88153.0,"lat":-37.937669,"lng":145.047708,"addr_street":"22 Fiddes Street","price":5896000.0,"property_type":"house","year":2010.0,"bedrooms":3.0,"bathrooms":1.0,"parking_space":2.0},{"property_id":62311.0,"lat":-37.79275,"lng":145.252591,"addr_street":"8 Kenwood Crescent","price":8480000.0,"property_type":"house","year":2014.0,"bedrooms":3.0,"bathrooms":1.0,"parking_space":2.0},{"property_id":70091.0,"lat":-37.861008,"lng":145.102434,"addr_street":"44 Ashwood Drive","price":13090000.0,"property_type":"house","year":2016.0,"bedrooms":4.0,"bathrooms":2.0,"parking_space":2.0},{"property_id":26097.0,"lat":-37.5814209,"lng":144.9215241,"addr_street":"24 Somersby Road","price":4020000.0,"property_type":"house","year":2009.0,"bedrooms":3.0,"bathrooms":2.0,"parking_space":1.0},{"property_id":18105.0,"lat":-37.683452,"lng":144.924061,"addr_street":"122 Cuthbert Street","price":7520000.0,"property_type":"house","year":2012.0,"bedrooms":4.0,"bathrooms":1.0,"parking_space":2.0},{"property_id":67329.0,"lat":-37.757708,"lng":145.370712,"addr_street":"3 Panorama Rise","price":4420000.0,"property_type":"house","year":2010.0,"bedrooms":3.0,"bathrooms":2.0,"parking_space":2.0},{"property_id":41396.0,"lat":-37.73465,"lng":145.078175,"addr_street":"1\/9 Greensborough Road","price":7725000.0,"property_type":"house","year":2016.0,"bedrooms":3.0,"bathrooms":2.0,"parking_space":1.0},{"property_id":12217.0,"lat":-37.69623566,"lng":144.7635193,"addr_street":"12 Jolly Place","price":4440000.0,"property_type":"house","year":2008.0,"bedrooms":4.0,"bathrooms":2.0,"parking_space":2.0},{"property_id":85483.0,"lat":-37.89317,"lng":145.005285,"addr_street":"29 St James Parade","price":11520000.0,"property_type":"house","year":2010.0,"bedrooms":4.0,"bathrooms":2.0,"parking_space":2.0},{"property_id":72243.0,"lat":-37.853095,"lng":145.272504,"addr_street":"27 Devenish Road","price":10000000.0,"property_type":"house","year":2015.0,"bedrooms":3.0,"bathrooms":1.0,"parking_space":2.0},{"property_id":31440.0,"lat":-37.751661,"lng":144.991196,"addr_street":"71 Miller Street","price":11680000.0,"property_type":"house","year":2015.0,"bedrooms":2.0,"bathrooms":1.0,"parking_space":2.0},{"property_id":56685.0,"lat":-37.844624,"lng":145.097528,"addr_street":"4 Waratah Avenue","price":15440000.0,"property_type":"house","year":2014.0,"bedrooms":3.0,"bathrooms":1.0,"parking_space":2.0},{"property_id":83077.0,"lat":-37.892018,"lng":145.251742,"addr_street":"2\/20 David Street","price":7600000.0,"property_type":"house","year":2015.0,"bedrooms":3.0,"bathrooms":2.0,"parking_space":2.0},{"property_id":65440.0,"lat":-37.796073,"lng":145.317011,"addr_street":"6 Dunrossil Drive","price":8592000.0,"property_type":"house","year":2015.0,"bedrooms":3.0,"bathrooms":1.0,"parking_space":1.0},{"property_id":31552.0,"lat":-37.758352,"lng":145.006572,"addr_street":"95 Gooch Street","price":21420000.0,"property_type":"house","year":2015.0,"bedrooms":3.0,"bathrooms":2.0,"parking_space":2.0},{"property_id":33976.0,"lat":-37.712945,"lng":144.988967,"addr_street":"17 Banbury Road","price":6545000.0,"property_type":"house","year":2013.0,"bedrooms":3.0,"bathrooms":1.0,"parking_space":3.0},{"property_id":33079.0,"lat":-37.732914,"lng":145.004545,"addr_street":"651 High Street","price":8190000.0,"property_type":"house","year":2014.0,"bedrooms":2.0,"bathrooms":1.0,"parking_space":3.0},{"property_id":76653.0,"lat":-37.92047882,"lng":145.1130066,"addr_street":"2 Ormond Road","price":4374000.0,"property_type":"house","year":2008.0,"bedrooms":3.0,"bathrooms":1.0,"parking_space":1.0},{"property_id":4238.0,"lat":-37.848555,"lng":144.867085,"addr_street":"2\/3 Sydney Street","price":5500000.0,"property_type":"house","year":2011.0,"bedrooms":3.0,"bathrooms":2.0,"parking_space":1.0},{"property_id":9878.0,"lat":-37.796594,"lng":144.93497,"addr_street":"1 Bent Street","price":7073000.0,"property_type":"house","year":2013.0,"bedrooms":3.0,"bathrooms":1.0,"parking_space":0.0},{"property_id":44161.0,"lat":-37.709741,"lng":145.095643,"addr_street":"115 Delta Road","price":6175000.0,"property_type":"house","year":2013.0,"bedrooms":3.0,"bathrooms":1.0,"parking_space":1.0},{"property_id":27173.0,"lat":-37.58721161,"lng":144.9364166,"addr_street":"5 The Creek Approach","price":5115000.0,"property_type":"house","year":2009.0,"bedrooms":3.0,"bathrooms":2.0,"parking_space":2.0},{"property_id":9560.0,"lat":-37.860897,"lng":144.721571,"addr_street":"5 Abbeydale Street","price":3080000.0,"property_type":"house","year":2010.0,"bedrooms":4.0,"bathrooms":2.0,"parking_space":2.0},{"property_id":35062.0,"lat":-37.714416,"lng":144.996564,"addr_street":"5 Best Street","price":8355000.0,"property_type":"house","year":2015.0,"bedrooms":3.0,"bathrooms":1.0,"parking_space":2.0},{"property_id":52839.0,"lat":-37.82180405,"lng":145.0093689,"addr_street":"26 Stillman Street","price":5130000.0,"property_type":"house","year":2009.0,"bedrooms":2.0,"bathrooms":1.0,"parking_space":1.0},{"property_id":66410.0,"lat":-37.772664,"lng":145.306885,"addr_street":"44 Bellara Drive","price":11216000.0,"property_type":"house","year":2016.0,"bedrooms":4.0,"bathrooms":2.0,"parking_space":2.0},{"property_id":52011.0,"lat":-37.798637,"lng":145.18131,"addr_street":"99 Mitcham Road","price":9334000.0,"property_type":"house","year":2011.0,"bedrooms":4.0,"bathrooms":2.0,"parking_space":2.0},{"property_id":35125.0,"lat":-37.698178,"lng":145.022982,"addr_street":"50 Locher Avenue","price":6512000.0,"property_type":"house","year":2013.0,"bedrooms":3.0,"bathrooms":1.0,"parking_space":2.0},{"property_id":26359.0,"lat":-37.589908,"lng":144.920054,"addr_street":"3 Leigh Court","price":6103000.0,"property_type":"house","year":2014.0,"bedrooms":3.0,"bathrooms":2.0,"parking_space":1.0},{"property_id":9371.0,"lat":-37.843803,"lng":144.72779,"addr_street":"2 Westmeadows Lane","price":2616000.0,"property_type":"house","year":2015.0,"bedrooms":3.0,"bathrooms":2.0,"parking_space":1.0},{"property_id":32019.0,"lat":-37.735101,"lng":145.024578,"addr_street":"164 Albert Street","price":7820000.0,"property_type":"house","year":2013.0,"bedrooms":3.0,"bathrooms":1.0,"parking_space":1.0},{"property_id":95599.0,"lat":-37.902752,"lng":145.047948,"addr_street":"34 Walsh St","price":9700000.0,"property_type":"house","year":2012.0,"bedrooms":4.0,"bathrooms":2.0,"parking_space":2.0},{"property_id":51202.0,"lat":-37.794062,"lng":145.129049,"addr_street":"3 Hardidge Court","price":11895000.0,"property_type":"house","year":2010.0,"bedrooms":4.0,"bathrooms":2.0,"parking_space":3.0},{"property_id":16931.0,"lat":-37.69635,"lng":144.945501,"addr_street":"27 Andrew Street","price":6820000.0,"property_type":"house","year":2015.0,"bedrooms":4.0,"bathrooms":1.0,"parking_space":1.0},{"property_id":73059.0,"lat":-37.858322,"lng":145.297467,"addr_street":"17 Harcourt Road","price":5520000.0,"property_type":"house","year":2013.0,"bedrooms":3.0,"bathrooms":1.0,"parking_space":2.0},{"property_id":83208.0,"lat":-37.890277,"lng":145.24422,"addr_street":"47 Allister Close","price":8160000.0,"property_type":"house","year":2012.0,"bedrooms":3.0,"bathrooms":1.0,"parking_space":3.0},{"property_id":69529.0,"lat":-37.865352,"lng":145.082092,"addr_street":"13 Morotai Avenue","price":12665000.0,"property_type":"house","year":2012.0,"bedrooms":3.0,"bathrooms":1.0,"parking_space":2.0},{"property_id":81927.0,"lat":-37.991301,"lng":145.231444,"addr_street":"20 Betula Street","price":3500000.0,"property_type":"house","year":2015.0,"bedrooms":3.0,"bathrooms":1.0,"parking_space":2.0},{"property_id":55001.0,"lat":-37.84362411,"lng":145.073761,"addr_street":"13 Gilbert Parade","price":7480000.0,"property_type":"house","year":2009.0,"bedrooms":3.0,"bathrooms":2.0,"parking_space":2.0},{"property_id":47505.0,"lat":-37.706982,"lng":145.17076,"addr_street":"75 Frank Street","price":6695000.0,"property_type":"house","year":2012.0,"bedrooms":3.0,"bathrooms":1.0,"parking_space":2.0},{"property_id":5909.0,"lat":-37.789846,"lng":144.846198,"addr_street":"9 Marnoo Street","price":3960000.0,"property_type":"house","year":2016.0,"bedrooms":3.0,"bathrooms":2.0,"parking_space":1.0},{"property_id":71806.0,"lat":-37.857998,"lng":145.217403,"addr_street":"8 Caulfield Court","price":15712000.0,"property_type":"house","year":2015.0,"bedrooms":4.0,"bathrooms":2.0,"parking_space":2.0},{"property_id":47891.0,"lat":-37.811374,"lng":145.02108,"addr_street":"14 Findon Crescent","price":3825000.0,"property_type":"house","year":2016.0,"bedrooms":5.0,"bathrooms":3.0,"parking_space":2.0},{"property_id":83766.0,"lat":-37.852227,"lng":145.004254,"addr_street":"26 Bayview Street","price":12740000.0,"property_type":"house","year":2015.0,"bedrooms":2.0,"bathrooms":1.0,"parking_space":0.0},{"property_id":3107.0,"lat":-37.822766,"lng":144.890818,"addr_street":"22 Beverley Street","price":7975000.0,"property_type":"house","year":2016.0,"bedrooms":2.0,"bathrooms":1.0,"parking_space":3.0},{"property_id":35081.0,"lat":-37.724185,"lng":144.996615,"addr_street":"5 Gilbank Street","price":7150000.0,"property_type":"house","year":2011.0,"bedrooms":3.0,"bathrooms":2.0,"parking_space":3.0},{"property_id":40129.0,"lat":-37.698316,"lng":145.060244,"addr_street":"24 Alma Road","price":5490000.0,"property_type":"house","year":2016.0,"bedrooms":3.0,"bathrooms":1.0,"parking_space":2.0},{"property_id":26839.0,"lat":-37.597982,"lng":144.936554,"addr_street":"4 Plumpton Avenue","price":5600000.0,"property_type":"house","year":2016.0,"bedrooms":3.0,"bathrooms":1.0,"parking_space":2.0},{"property_id":27411.0,"lat":-37.57832,"lng":144.909883,"addr_street":"6 North Croft Street","price":3280000.0,"property_type":"house","year":2011.0,"bedrooms":3.0,"bathrooms":2.0,"parking_space":2.0},{"property_id":50604.0,"lat":-37.75638199,"lng":145.1364288,"addr_street":"6 Stradmore Avenue","price":8640000.0,"property_type":"house","year":2009.0,"bedrooms":5.0,"bathrooms":3.0,"parking_space":0.0},{"property_id":18182.0,"lat":-37.673211,"lng":144.947927,"addr_street":"14 Geach Street","price":4100000.0,"property_type":"house","year":2015.0,"bedrooms":3.0,"bathrooms":1.0,"parking_space":1.0},{"property_id":75897.0,"lat":-37.908219,"lng":145.078883,"addr_street":"2\/45 Simmonds Street","price":8400000.0,"property_type":"house","year":2014.0,"bedrooms":2.0,"bathrooms":1.0,"parking_space":1.0},{"property_id":70347.0,"lat":-37.874137,"lng":145.073511,"addr_street":"82 Nicholas Street","price":13950000.0,"property_type":"house","year":2015.0,"bedrooms":4.0,"bathrooms":2.0,"parking_space":2.0},{"property_id":72861.0,"lat":-37.865486,"lng":145.288868,"addr_street":"11 Taranto Court","price":6420000.0,"property_type":"house","year":2015.0,"bedrooms":3.0,"bathrooms":2.0,"parking_space":2.0},{"property_id":79769.0,"lat":-38.003984,"lng":145.159325,"addr_street":"17 Keylana Drive","price":6600000.0,"property_type":"house","year":2014.0,"bedrooms":4.0,"bathrooms":2.0,"parking_space":2.0},{"property_id":8294.0,"lat":-37.767716,"lng":144.782409,"addr_street":"23 Dunbarrim Avenue","price":6380000.0,"property_type":"house","year":2012.0,"bedrooms":5.0,"bathrooms":3.0,"parking_space":2.0},{"property_id":16849.0,"lat":-37.712724,"lng":144.907117,"addr_street":"23 Loongana Avenue","price":8640000.0,"property_type":"house","year":2012.0,"bedrooms":3.0,"bathrooms":2.0,"parking_space":2.0},{"property_id":88598.0,"lat":-37.951407,"lng":145.033505,"addr_street":"2 Rose Street","price":12000000.0,"property_type":"house","year":2015.0,"bedrooms":3.0,"bathrooms":1.0,"parking_space":1.0},{"property_id":59141.0,"lat":-37.81176758,"lng":145.1787567,"addr_street":"8 Stuart Crescent","price":5750000.0,"property_type":"house","year":2009.0,"bedrooms":3.0,"bathrooms":1.0,"parking_space":2.0},{"property_id":34518.0,"lat":-37.72303772,"lng":144.9973602,"addr_street":"28 Locksley Avenue","price":8551000.0,"property_type":"house","year":2009.0,"bedrooms":3.0,"bathrooms":1.0,"parking_space":1.0},{"property_id":7683.0,"lat":-37.73499298,"lng":144.826004,"addr_street":"90 Driscolls Road","price":5040000.0,"property_type":"house","year":2008.0,"bedrooms":3.0,"bathrooms":2.0,"parking_space":2.0},{"property_id":42690.0,"lat":-37.736467,"lng":145.06432,"addr_street":"92 Bellevue Avenue","price":12040000.0,"property_type":"house","year":2011.0,"bedrooms":4.0,"bathrooms":2.0,"parking_space":1.0},{"property_id":34356.0,"lat":-37.72693634,"lng":145.02388,"addr_street":"23 Dorrington Avenue","price":5978000.0,"property_type":"house","year":2009.0,"bedrooms":3.0,"bathrooms":1.0,"parking_space":0.0},{"property_id":33707.0,"lat":-37.732031,"lng":145.034713,"addr_street":"12 Mattea Court","price":6192000.0,"property_type":"house","year":2012.0,"bedrooms":3.0,"bathrooms":1.0,"parking_space":1.0},{"property_id":43458.0,"lat":-37.716459,"lng":145.086963,"addr_street":"12 Illoura Street","price":5050000.0,"property_type":"house","year":2010.0,"bedrooms":3.0,"bathrooms":2.0,"parking_space":2.0},{"property_id":18306.0,"lat":-37.683918,"lng":144.929848,"addr_street":"17 Joffre Street","price":3640000.0,"property_type":"house","year":2014.0,"bedrooms":3.0,"bathrooms":1.0,"parking_space":2.0},{"property_id":80155.0,"lat":-37.9848938,"lng":145.1647186,"addr_street":"345 Corrigan Road","price":5120000.0,"property_type":"house","year":2009.0,"bedrooms":3.0,"bathrooms":1.0,"parking_space":1.0},{"property_id":35007.0,"lat":-37.72646713,"lng":145.0223236,"addr_street":"46 Dorrington Avenue","price":3132000.0,"property_type":"house","year":2009.0,"bedrooms":3.0,"bathrooms":1.0,"parking_space":0.0},{"property_id":91326.0,"lat":-37.979281,"lng":145.03632,"addr_street":"17 Clonmore Street","price":16120000.0,"property_type":"house","year":2014.0,"bedrooms":4.0,"bathrooms":2.0,"parking_space":2.0},{"property_id":9719.0,"lat":-37.859867,"lng":144.728552,"addr_street":"No.13 Cheviot Drive","price":6090000.0,"property_type":"house","year":2015.0,"bedrooms":4.0,"bathrooms":2.0,"parking_space":2.0},{"property_id":77211.0,"lat":-37.931294,"lng":145.101405,"addr_street":"34 Crawford Road","price":7150000.0,"property_type":"house","year":2009.0,"bedrooms":4.0,"bathrooms":2.0,"parking_space":2.0},{"property_id":50886.0,"lat":-37.789137,"lng":145.139301,"addr_street":"17 Burilla Avenue","price":17080000.0,"property_type":"house","year":2015.0,"bedrooms":3.0,"bathrooms":1.0,"parking_space":2.0},{"property_id":22736.0,"lat":-37.747445,"lng":144.96485,"addr_street":"4 Brown Street","price":8316000.0,"property_type":"house","year":2014.0,"bedrooms":2.0,"bathrooms":1.0,"parking_space":0.0},{"property_id":66114.0,"lat":-37.791692,"lng":145.324815,"addr_street":"26 Masefield Avenue","price":4823000.0,"property_type":"house","year":2010.0,"bedrooms":3.0,"bathrooms":2.0,"parking_space":1.0},{"property_id":44818.0,"lat":-37.70092,"lng":145.113646,"addr_street":"3 Boulton Court","price":4400000.0,"property_type":"house","year":2012.0,"bedrooms":2.0,"bathrooms":1.0,"parking_space":2.0},{"property_id":22339.0,"lat":-37.747167,"lng":144.967811,"addr_street":"23 Hatton Grove","price":7168000.0,"property_type":"house","year":2013.0,"bedrooms":3.0,"bathrooms":2.0,"parking_space":2.0},{"property_id":18981.0,"lat":-37.685303,"lng":144.93058,"addr_street":"50 Stanhope Street","price":5915000.0,"property_type":"house","year":2016.0,"bedrooms":3.0,"bathrooms":1.0,"parking_space":1.0},{"property_id":96295.0,"lat":-37.92047119,"lng":145.0323639,"addr_street":"9 Campbell Street","price":9465000.0,"property_type":"house","year":2006.0,"bedrooms":3.0,"bathrooms":1.0,"parking_space":0.0},{"property_id":82811.0,"lat":-37.901892,"lng":145.272807,"addr_street":"5 Woods Place","price":7110000.0,"property_type":"house","year":2012.0,"bedrooms":5.0,"bathrooms":2.0,"parking_space":2.0},{"property_id":28398.0,"lat":-37.80204,"lng":144.976979,"addr_street":"75 King William Street","price":19440000.0,"property_type":"house","year":2014.0,"bedrooms":4.0,"bathrooms":2.0,"parking_space":0.0},{"property_id":45129.0,"lat":-37.718586,"lng":145.104675,"addr_street":"46 Elonera Avenue","price":4160000.0,"property_type":"house","year":2015.0,"bedrooms":3.0,"bathrooms":2.0,"parking_space":2.0},{"property_id":45226.0,"lat":-37.689975,"lng":145.124184,"addr_street":"5 Yaralla Crescent","price":5860000.0,"property_type":"house","year":2010.0,"bedrooms":4.0,"bathrooms":2.0,"parking_space":2.0},{"property_id":61916.0,"lat":-37.806736,"lng":145.241171,"addr_street":"4 Herbert Street","price":6545000.0,"property_type":"house","year":2009.0,"bedrooms":3.0,"bathrooms":1.0,"parking_space":2.0},{"property_id":88481.0,"lat":-37.950594,"lng":145.033684,"addr_street":"14 Rose Street","price":12138000.0,"property_type":"house","year":2012.0,"bedrooms":3.0,"bathrooms":2.0,"parking_space":3.0},{"property_id":54858.0,"lat":-37.841051,"lng":145.085429,"addr_street":"10 Beech Street","price":10980000.0,"property_type":"house","year":2014.0,"bedrooms":3.0,"bathrooms":1.0,"parking_space":0.0},{"property_id":47375.0,"lat":-37.697382,"lng":145.15352,"addr_street":"6 Pitura Place","price":3220000.0,"property_type":"house","year":2013.0,"bedrooms":3.0,"bathrooms":2.0,"parking_space":3.0},{"property_id":17023.0,"lat":-37.709889,"lng":144.905537,"addr_street":"3\/34 Pengana Ave","price":4500000.0,"property_type":"house","year":2013.0,"bedrooms":2.0,"bathrooms":1.0,"parking_space":1.0},{"property_id":16122.0,"lat":-37.70703125,"lng":144.8950195,"addr_street":"64 Gowanbrae Drive","price":6900000.0,"property_type":"house","year":2008.0,"bedrooms":3.0,"bathrooms":2.0,"parking_space":1.0},{"property_id":27921.0,"lat":-37.608801,"lng":144.920375,"addr_street":"9 Greenfield Court","price":6240000.0,"property_type":"house","year":2015.0,"bedrooms":4.0,"bathrooms":2.0,"parking_space":2.0},{"property_id":48836.0,"lat":-37.810591,"lng":145.040568,"addr_street":"94 Wellington Street","price":3052500.0,"property_type":"house","year":2016.0,"bedrooms":4.0,"bathrooms":2.0,"parking_space":2.0},{"property_id":90698.0,"lat":-37.964417,"lng":145.07623,"addr_street":"42 Brampton Street","price":10848000.0,"property_type":"house","year":2014.0,"bedrooms":3.0,"bathrooms":1.0,"parking_space":2.0},{"property_id":16698.0,"lat":-37.704641,"lng":144.929999,"addr_street":"19 Leonard Avenue","price":9775000.0,"property_type":"house","year":2010.0,"bedrooms":3.0,"bathrooms":2.0,"parking_space":1.0},{"property_id":30118.0,"lat":-37.778588,"lng":145.015102,"addr_street":"455 Clarke Street","price":7236000.0,"property_type":"house","year":2010.0,"bedrooms":3.0,"bathrooms":1.0,"parking_space":1.0},{"property_id":2496.0,"lat":-37.809468,"lng":144.880472,"addr_street":"78 Coronation Street","price":8304000.0,"property_type":"house","year":2011.0,"bedrooms":3.0,"bathrooms":1.0,"parking_space":1.0},{"property_id":7101.0,"lat":-37.780644,"lng":144.837291,"addr_street":"9 Mellor Street","price":5600000.0,"property_type":"house","year":2014.0,"bedrooms":2.0,"bathrooms":1.0,"parking_space":1.0},{"property_id":18016.0,"lat":-37.673224,"lng":144.9356,"addr_street":"104 Dallas Drive","price":2718000.0,"property_type":"house","year":2010.0,"bedrooms":3.0,"bathrooms":1.0,"parking_space":1.0},{"property_id":31962.0,"lat":-37.734897,"lng":145.020026,"addr_street":"152 Wood Street","price":8025000.0,"property_type":"house","year":2012.0,"bedrooms":4.0,"bathrooms":1.0,"parking_space":3.0},{"property_id":84854.0,"lat":-37.876283,"lng":144.979829,"addr_street":"302 Barkly Street","price":23700000.0,"property_type":"house","year":2016.0,"bedrooms":2.0,"bathrooms":1.0,"parking_space":1.0},{"property_id":81216.0,"lat":-37.98001862,"lng":145.2015228,"addr_street":"38 Jones Road","price":4598000.0,"property_type":"house","year":2009.0,"bedrooms":3.0,"bathrooms":1.0,"parking_space":2.0},{"property_id":50555.0,"lat":-37.752993,"lng":145.127078,"addr_street":"37 Unwin Street","price":5904000.0,"property_type":"house","year":2012.0,"bedrooms":5.0,"bathrooms":2.0,"parking_space":2.0},{"property_id":55137.0,"lat":-37.842369,"lng":145.080271,"addr_street":"174 Wattle Valley Road","price":31220000.0,"property_type":"house","year":2014.0,"bedrooms":5.0,"bathrooms":3.0,"parking_space":3.0},{"property_id":55072.0,"lat":-37.845578,"lng":145.065556,"addr_street":"15 Range Street","price":39950000.0,"property_type":"house","year":2014.0,"bedrooms":4.0,"bathrooms":3.0,"parking_space":2.0},{"property_id":29140.0,"lat":-37.799682,"lng":144.998436,"addr_street":"85 Turner Street","price":20020000.0,"property_type":"house","year":2016.0,"bedrooms":2.0,"bathrooms":1.0,"parking_space":1.0},{"property_id":70677.0,"lat":-37.875186,"lng":145.108263,"addr_street":"26 Grandview Road","price":17940000.0,"property_type":"house","year":2013.0,"bedrooms":3.0,"bathrooms":1.0,"parking_space":2.0},{"property_id":76489.0,"lat":-37.930458,"lng":145.112524,"addr_street":"1\/30 Manoon Road","price":3645000.0,"property_type":"house","year":2008.0,"bedrooms":3.0,"bathrooms":1.0,"parking_space":1.0},{"property_id":6485.0,"lat":-37.79744,"lng":144.82609,"addr_street":"24 Dunbar Avenue","price":5360000.0,"property_type":"house","year":2015.0,"bedrooms":2.0,"bathrooms":1.0,"parking_space":1.0},{"property_id":55466.0,"lat":-37.837334,"lng":145.09398,"addr_street":"3 Dower Street","price":22100000.0,"property_type":"house","year":2010.0,"bedrooms":3.0,"bathrooms":1.0,"parking_space":2.0},{"property_id":83436.0,"lat":-37.852725,"lng":145.006268,"addr_street":"11a Chatsworth Road","price":15400000.0,"property_type":"house","year":2011.0,"bedrooms":2.0,"bathrooms":2.0,"parking_space":2.0},{"property_id":11327.0,"lat":-37.786328,"lng":144.885912,"addr_street":"2B Mephan Street","price":8100000.0,"property_type":"house","year":2010.0,"bedrooms":3.0,"bathrooms":2.0,"parking_space":2.0},{"property_id":4596.0,"lat":-37.83160782,"lng":144.8737183,"addr_street":"63 Watt Street","price":5500000.0,"property_type":"house","year":2008.0,"bedrooms":4.0,"bathrooms":2.0,"parking_space":2.0},{"property_id":32788.0,"lat":-37.739366,"lng":145.006988,"addr_street":"43 Roseberry Avenue","price":7227000.0,"property_type":"house","year":2014.0,"bedrooms":2.0,"bathrooms":1.0,"parking_space":1.0},{"property_id":9119.0,"lat":-37.863735,"lng":144.769061,"addr_street":"54 Maher Road","price":5550000.0,"property_type":"house","year":2011.0,"bedrooms":3.0,"bathrooms":1.0,"parking_space":1.0},{"property_id":67131.0,"lat":-37.744299,"lng":145.33795,"addr_street":"18 Mentor  Grove","price":3015000.0,"property_type":"house","year":2013.0,"bedrooms":4.0,"bathrooms":2.0,"parking_space":2.0},{"property_id":68334.0,"lat":-37.857586,"lng":145.019736,"addr_street":"19 Cheel Street","price":10000000.0,"property_type":"house","year":2015.0,"bedrooms":3.0,"bathrooms":1.0,"parking_space":1.0},{"property_id":4444.0,"lat":-37.834254,"lng":144.870446,"addr_street":"40 Percy Street","price":2400000.0,"property_type":"house","year":2013.0,"bedrooms":3.0,"bathrooms":1.0,"parking_space":0.0},{"property_id":77420.0,"lat":-37.92704391,"lng":145.1542053,"addr_street":"11 Seaview Crescent","price":4200000.0,"property_type":"house","year":2008.0,"bedrooms":3.0,"bathrooms":2.0,"parking_space":1.0},{"property_id":35290.0,"lat":-37.7139078,"lng":145.0091398,"addr_street":"6 Cheddar Road","price":7618000.0,"property_type":"house","year":2010.0,"bedrooms":3.0,"bathrooms":1.0,"parking_space":2.0},{"property_id":86691.0,"lat":-37.894872,"lng":144.989853,"addr_street":"397 St Kilda Street","price":17780000.0,"property_type":"house","year":2010.0,"bedrooms":4.0,"bathrooms":2.0,"parking_space":2.0},{"property_id":73802.0,"lat":-37.867694,"lng":145.284103,"addr_street":"51 Tulip  Crescent","price":6985000.0,"property_type":"house","year":2016.0,"bedrooms":4.0,"bathrooms":2.0,"parking_space":2.0},{"property_id":16431.0,"lat":-37.696353,"lng":144.924504,"addr_street":"121 Widford Street","price":5894000.0,"property_type":"house","year":2012.0,"bedrooms":3.0,"bathrooms":1.0,"parking_space":2.0},{"property_id":89129.0,"lat":-37.954899,"lng":145.007989,"addr_street":"11 Cowper Street","price":36120000.0,"property_type":"house","year":2016.0,"bedrooms":4.0,"bathrooms":3.0,"parking_space":2.0},{"property_id":94569.0,"lat":-37.9306863,"lng":145.044973,"addr_street":"10 Marquis Road","price":7320000.0,"property_type":"house","year":2013.0,"bedrooms":3.0,"bathrooms":2.0,"parking_space":2.0},{"property_id":81420.0,"lat":-37.974834,"lng":145.200545,"addr_street":"6 Ray Street","price":6525000.0,"property_type":"house","year":2015.0,"bedrooms":3.0,"bathrooms":1.0,"parking_space":2.0},{"property_id":88784.0,"lat":-37.94333267,"lng":145.0236664,"addr_street":"31 June Street","price":6050000.0,"property_type":"house","year":2008.0,"bedrooms":4.0,"bathrooms":2.0,"parking_space":1.0},{"property_id":92587.0,"lat":-38.000656,"lng":145.081163,"addr_street":"10 Royal Parade","price":12675000.0,"property_type":"house","year":2015.0,"bedrooms":3.0,"bathrooms":1.0,"parking_space":1.0},{"property_id":19548.0,"lat":-37.673282,"lng":144.901444,"addr_street":"11 Walpa Court","price":3400000.0,"property_type":"house","year":2013.0,"bedrooms":3.0,"bathrooms":1.0,"parking_space":2.0},{"property_id":59409.0,"lat":-37.812844,"lng":145.190223,"addr_street":"14 Deakin Street","price":7100000.0,"property_type":"house","year":2014.0,"bedrooms":3.0,"bathrooms":1.0,"parking_space":1.0},{"property_id":85522.0,"lat":-37.88437,"lng":145.012554,"addr_street":"31 Murray Street","price":14100000.0,"property_type":"house","year":2013.0,"bedrooms":4.0,"bathrooms":1.0,"parking_space":1.0},{"property_id":18822.0,"lat":-37.67370605,"lng":144.9199982,"addr_street":"4 Nathalia Street","price":4060000.0,"property_type":"house","year":2009.0,"bedrooms":3.0,"bathrooms":1.0,"parking_space":2.0},{"property_id":32437.0,"lat":-37.750199,"lng":144.988449,"addr_street":"26 Gilbert Road","price":11112000.0,"property_type":"house","year":2015.0,"bedrooms":3.0,"bathrooms":2.0,"parking_space":0.0},{"property_id":46692.0,"lat":-37.705689,"lng":145.146801,"addr_street":"160 Scenic Crescent","price":10256000.0,"property_type":"house","year":2011.0,"bedrooms":4.0,"bathrooms":2.0,"parking_space":2.0},{"property_id":53404.0,"lat":-37.824243,"lng":145.008143,"addr_street":"5 Mitchell Street","price":7000000.0,"property_type":"house","year":2010.0,"bedrooms":3.0,"bathrooms":1.0,"parking_space":0.0},{"property_id":17557.0,"lat":-37.70047,"lng":144.931136,"addr_street":"64 Leonard Avenue","price":3280000.0,"property_type":"house","year":2010.0,"bedrooms":3.0,"bathrooms":1.0,"parking_space":0.0},{"property_id":18508.0,"lat":-37.686793,"lng":144.926372,"addr_street":"235 Widford Street","price":3465000.0,"property_type":"house","year":2015.0,"bedrooms":3.0,"bathrooms":1.0,"parking_space":1.0},{"property_id":2954.0,"lat":-37.81407166,"lng":144.8886871,"addr_street":"17A Avoca Street","price":8450000.0,"property_type":"house","year":2008.0,"bedrooms":2.0,"bathrooms":2.0,"parking_space":0.0},{"property_id":63595.0,"lat":-37.79615021,"lng":145.2987824,"addr_street":"15 Pascoe Ave","price":3135000.0,"property_type":"house","year":2008.0,"bedrooms":3.0,"bathrooms":1.0,"parking_space":1.0},{"property_id":3318.0,"lat":-37.815946,"lng":144.891894,"addr_street":"3 Murray Street","price":16184000.0,"property_type":"house","year":2010.0,"bedrooms":3.0,"bathrooms":1.0,"parking_space":2.0},{"property_id":20615.0,"lat":-37.767631,"lng":144.969427,"addr_street":"161 Victoria Street","price":15840000.0,"property_type":"house","year":2015.0,"bedrooms":3.0,"bathrooms":1.0,"parking_space":2.0},{"property_id":34254.0,"lat":-37.707389,"lng":145.025213,"addr_street":"20 Miranda Road","price":7605000.0,"property_type":"house","year":2016.0,"bedrooms":2.0,"bathrooms":1.0,"parking_space":2.0},{"property_id":37895.0,"lat":-37.781846,"lng":145.029548,"addr_street":"1 Riverview Grove","price":9240000.0,"property_type":"house","year":2012.0,"bedrooms":3.0,"bathrooms":1.0,"parking_space":2.0},{"property_id":44695.0,"lat":-37.683236,"lng":145.115248,"addr_street":"238 Plenty River Drive","price":6480000.0,"property_type":"house","year":2010.0,"bedrooms":5.0,"bathrooms":3.0,"parking_space":2.0},{"property_id":95781.0,"lat":-37.914742,"lng":145.046756,"addr_street":"41 Wavell Street","price":23360000.0,"property_type":"house","year":2016.0,"bedrooms":4.0,"bathrooms":1.0,"parking_space":2.0},{"property_id":14836.0,"lat":-37.76188,"lng":144.89519,"addr_street":"84 Fawkner Street","price":10880000.0,"property_type":"house","year":2009.0,"bedrooms":3.0,"bathrooms":1.0,"parking_space":0.0},{"property_id":91673.0,"lat":-37.978012,"lng":145.035739,"addr_street":"452 Balcombe Road","price":13800000.0,"property_type":"house","year":2015.0,"bedrooms":3.0,"bathrooms":2.0,"parking_space":2.0},{"property_id":72832.0,"lat":-37.84117126,"lng":145.2960205,"addr_street":"1048 Mountain Highway","price":5729000.0,"property_type":"house","year":2008.0,"bedrooms":4.0,"bathrooms":2.0,"parking_space":2.0},{"property_id":95242.0,"lat":-37.915384,"lng":145.030929,"addr_street":"23 Rose Street","price":29040000.0,"property_type":"house","year":2013.0,"bedrooms":4.0,"bathrooms":3.0,"parking_space":3.0},{"property_id":91119.0,"lat":-37.973274,"lng":145.050601,"addr_street":"1 McNamara Street","price":25330000.0,"property_type":"house","year":2016.0,"bedrooms":4.0,"bathrooms":3.0,"parking_space":2.0},{"property_id":6049.0,"lat":-37.7808876,"lng":144.8210144,"addr_street":"11 Kamarooka Street","price":4300000.0,"property_type":"house","year":2009.0,"bedrooms":3.0,"bathrooms":1.0,"parking_space":2.0},{"property_id":30906.0,"lat":-37.755245,"lng":145.016854,"addr_street":"2 Alston Street","price":8190000.0,"property_type":"house","year":2013.0,"bedrooms":4.0,"bathrooms":2.0,"parking_space":3.0},{"property_id":92683.0,"lat":-37.986832,"lng":145.09218,"addr_street":"13 Keiller Avenue","price":18190000.0,"property_type":"house","year":2015.0,"bedrooms":4.0,"bathrooms":2.0,"parking_space":2.0},{"property_id":62838.0,"lat":-37.829651,"lng":145.259518,"addr_street":"3 View Court","price":10660000.0,"property_type":"house","year":2014.0,"bedrooms":4.0,"bathrooms":3.0,"parking_space":2.0},{"property_id":53731.0,"lat":-37.823257,"lng":144.993291,"addr_street":"73 Tanner Street","price":5270000.0,"property_type":"house","year":2014.0,"bedrooms":3.0,"bathrooms":1.0,"parking_space":1.0},{"property_id":72511.0,"lat":-37.854367,"lng":145.252969,"addr_street":"6 Mareeba Crescent","price":8580000.0,"property_type":"house","year":2016.0,"bedrooms":3.0,"bathrooms":1.0,"parking_space":1.0},{"property_id":67624.0,"lat":-37.758154,"lng":145.337232,"addr_street":"60 Albert Hill Road","price":7800000.0,"property_type":"house","year":2016.0,"bedrooms":4.0,"bathrooms":2.0,"parking_space":0.0},{"property_id":82365.0,"lat":-37.995444,"lng":145.25195,"addr_street":"7 CYPRUS STREET","price":4130000.0,"property_type":"house","year":2013.0,"bedrooms":3.0,"bathrooms":1.0,"parking_space":1.0},{"property_id":5786.0,"lat":-37.795648,"lng":144.851368,"addr_street":"44 Ruby Way","price":9750000.0,"property_type":"house","year":2014.0,"bedrooms":4.0,"bathrooms":2.0,"parking_space":2.0},{"property_id":13542.0,"lat":-37.697774,"lng":144.74759,"addr_street":"84 Catherine Drive","price":8250000.0,"property_type":"house","year":2011.0,"bedrooms":3.0,"bathrooms":2.0,"parking_space":2.0},{"property_id":40124.0,"lat":-37.71843,"lng":145.035298,"addr_street":"23-25 Keats Avenue","price":14300000.0,"property_type":"house","year":2015.0,"bedrooms":3.0,"bathrooms":1.0,"parking_space":0.0},{"property_id":2555.0,"lat":-37.777417,"lng":144.872683,"addr_street":"9 Crefden Street","price":4590000.0,"property_type":"house","year":2013.0,"bedrooms":3.0,"bathrooms":2.0,"parking_space":2.0},{"property_id":5830.0,"lat":-37.77599716,"lng":144.8548737,"addr_street":"6 Sedge Close","price":13530000.0,"property_type":"house","year":2010.0,"bedrooms":3.0,"bathrooms":1.0,"parking_space":1.0},{"property_id":61570.0,"lat":-37.824043,"lng":145.228568,"addr_street":"22 Ireland Street","price":11520000.0,"property_type":"house","year":2010.0,"bedrooms":3.0,"bathrooms":1.0,"parking_space":2.0},{"property_id":25459.0,"lat":-37.57427216,"lng":144.9261169,"addr_street":"15 Beechville Place","price":7888000.0,"property_type":"house","year":2009.0,"bedrooms":4.0,"bathrooms":2.0,"parking_space":2.0},{"property_id":44891.0,"lat":-37.687013,"lng":145.117023,"addr_street":"30 St Georges Court","price":11680000.0,"property_type":"house","year":2009.0,"bedrooms":4.0,"bathrooms":2.0,"parking_space":2.0},{"property_id":42702.0,"lat":-37.737394,"lng":145.062863,"addr_street":"96 Grandview Grove","price":14400000.0,"property_type":"house","year":2013.0,"bedrooms":3.0,"bathrooms":1.0,"parking_space":0.0},{"property_id":18373.0,"lat":-37.689501,"lng":144.925786,"addr_street":"197 Widford Street","price":4430000.0,"property_type":"house","year":2016.0,"bedrooms":4.0,"bathrooms":2.0,"parking_space":1.0},{"property_id":67970.0,"lat":-37.839984,"lng":145.023077,"addr_street":"215 Kooyong Road","price":24150000.0,"property_type":"house","year":2016.0,"bedrooms":3.0,"bathrooms":3.0,"parking_space":2.0},{"property_id":35664.0,"lat":-37.712946,"lng":145.013592,"addr_street":"83 Royal Parade","price":7700000.0,"property_type":"house","year":2016.0,"bedrooms":3.0,"bathrooms":1.0,"parking_space":1.0},{"property_id":94199.0,"lat":-38.076792,"lng":145.128076,"addr_street":"39 Walkers Road","price":11130000.0,"property_type":"house","year":2016.0,"bedrooms":3.0,"bathrooms":1.0,"parking_space":1.0},{"property_id":23596.0,"lat":-37.61075,"lng":144.908671,"addr_street":"35 Candlebark Drive","price":7910000.0,"property_type":"house","year":2016.0,"bedrooms":4.0,"bathrooms":2.0,"parking_space":2.0},{"property_id":46071.0,"lat":-37.710567,"lng":145.123871,"addr_street":"4\/29 Baldwin Avenue","price":7950000.0,"property_type":"house","year":2010.0,"bedrooms":3.0,"bathrooms":2.0,"parking_space":2.0},{"property_id":66173.0,"lat":-37.763397,"lng":145.315844,"addr_street":"3 Chinook Crescent","price":5733000.0,"property_type":"house","year":2014.0,"bedrooms":2.0,"bathrooms":2.0,"parking_space":3.0},{"property_id":34132.0,"lat":-37.719732,"lng":144.992456,"addr_street":"1A View Street","price":7602000.0,"property_type":"house","year":2014.0,"bedrooms":3.0,"bathrooms":1.0,"parking_space":2.0},{"property_id":18473.0,"lat":-37.667803,"lng":144.945238,"addr_street":"22 Edmund Street","price":5018000.0,"property_type":"house","year":2015.0,"bedrooms":3.0,"bathrooms":1.0,"parking_space":2.0},{"property_id":34354.0,"lat":-37.69808578,"lng":145.0335541,"addr_street":"23 Clough Parade","price":6720000.0,"property_type":"house","year":2009.0,"bedrooms":4.0,"bathrooms":2.0,"parking_space":3.0},{"property_id":51267.0,"lat":-37.779762,"lng":145.135458,"addr_street":"32 Roseland  Grove","price":12840000.0,"property_type":"house","year":2013.0,"bedrooms":4.0,"bathrooms":2.0,"parking_space":2.0},{"property_id":27074.0,"lat":-37.58617,"lng":144.919224,"addr_street":"5 Burrora Way","price":2700000.0,"property_type":"house","year":2012.0,"bedrooms":3.0,"bathrooms":1.0,"parking_space":1.0},{"property_id":18630.0,"lat":-37.671806,"lng":144.93501,"addr_street":"3 Lismore Street","price":2618000.0,"property_type":"house","year":2012.0,"bedrooms":3.0,"bathrooms":1.0,"parking_space":1.0},{"property_id":44513.0,"lat":-37.701051,"lng":145.092137,"addr_street":"2 Cambita Court","price":5775000.0,"property_type":"house","year":2012.0,"bedrooms":4.0,"bathrooms":2.0,"parking_space":2.0},{"property_id":13233.0,"lat":-37.696187,"lng":144.745841,"addr_street":"5 Palm Close","price":5640000.0,"property_type":"house","year":2010.0,"bedrooms":3.0,"bathrooms":2.0,"parking_space":2.0},{"property_id":88245.0,"lat":-37.93701553,"lng":145.059906,"addr_street":"53 Marrbridge Road","price":5995000.0,"property_type":"house","year":2008.0,"bedrooms":3.0,"bathrooms":1.0,"parking_space":2.0},{"property_id":91947.0,"lat":-37.979866,"lng":145.071491,"addr_street":"101 Warrigal Road","price":6528000.0,"property_type":"house","year":2013.0,"bedrooms":3.0,"bathrooms":1.0,"parking_space":2.0},{"property_id":82196.0,"lat":-37.98950958,"lng":145.2415466,"addr_street":"41 Ti-Tree Drive","price":3232000.0,"property_type":"house","year":2009.0,"bedrooms":3.0,"bathrooms":1.0,"parking_space":0.0},{"property_id":29214.0,"lat":-37.77744,"lng":144.994826,"addr_street":"102 Charles Street","price":10560000.0,"property_type":"house","year":2014.0,"bedrooms":2.0,"bathrooms":1.0,"parking_space":1.0},{"property_id":72517.0,"lat":-37.851685,"lng":145.255215,"addr_street":"6 Tolga Court","price":7200000.0,"property_type":"house","year":2014.0,"bedrooms":4.0,"bathrooms":2.0,"parking_space":2.0},{"property_id":93418.0,"lat":-37.9958992,"lng":145.0721283,"addr_street":"4A Birdwood Street","price":11736000.0,"property_type":"house","year":2008.0,"bedrooms":4.0,"bathrooms":2.0,"parking_space":2.0},{"property_id":69382.0,"lat":-37.871385,"lng":145.089572,"addr_street":"1\/100 Victory Boulevard","price":11200000.0,"property_type":"house","year":2009.0,"bedrooms":3.0,"bathrooms":2.0,"parking_space":2.0},{"property_id":12123.0,"lat":-37.70438,"lng":144.760177,"addr_street":"10 Ruben Drive","price":6305000.0,"property_type":"house","year":2015.0,"bedrooms":4.0,"bathrooms":2.0,"parking_space":2.0},{"property_id":62428.0,"lat":-37.833097,"lng":145.233843,"addr_street":"1 Bligh Court","price":7345000.0,"property_type":"house","year":2011.0,"bedrooms":4.0,"bathrooms":2.0,"parking_space":2.0},{"property_id":35051.0,"lat":-37.720042,"lng":145.019597,"addr_street":"49 Shand Road","price":7800000.0,"property_type":"house","year":2014.0,"bedrooms":3.0,"bathrooms":1.0,"parking_space":0.0},{"property_id":53307.0,"lat":-37.821268,"lng":145.005518,"addr_street":"43 Hunter Street","price":18000000.0,"property_type":"house","year":2015.0,"bedrooms":4.0,"bathrooms":2.0,"parking_space":1.0},{"property_id":52855.0,"lat":-37.830518,"lng":144.999338,"addr_street":"27 Cotter Street","price":10080000.0,"property_type":"house","year":2010.0,"bedrooms":3.0,"bathrooms":1.0,"parking_space":0.0},{"property_id":78429.0,"lat":-37.93416977,"lng":145.1989899,"addr_street":"9 Amblecote Crescent","price":5100000.0,"property_type":"house","year":2008.0,"bedrooms":3.0,"bathrooms":1.0,"parking_space":2.0},{"property_id":8408.0,"lat":-37.75921631,"lng":144.782959,"addr_street":"3 Sugargum Grove","price":3185000.0,"property_type":"house","year":2008.0,"bedrooms":4.0,"bathrooms":2.0,"parking_space":2.0},{"property_id":7930.0,"lat":-37.780861,"lng":144.806322,"addr_street":"7 Maxweld Street","price":3240000.0,"property_type":"house","year":2011.0,"bedrooms":4.0,"bathrooms":2.0,"parking_space":2.0},{"property_id":13945.0,"lat":-37.750842,"lng":144.90531,"addr_street":"17A Woolley Street","price":8500000.0,"property_type":"house","year":2014.0,"bedrooms":3.0,"bathrooms":2.0,"parking_space":2.0},{"property_id":84180.0,"lat":-37.851079,"lng":145.005983,"addr_street":"57 Wrights Terrace","price":10680000.0,"property_type":"house","year":2013.0,"bedrooms":2.0,"bathrooms":1.0,"parking_space":0.0},{"property_id":4769.0,"lat":-37.85794067,"lng":144.8181915,"addr_street":"1 Merritt Court","price":4550000.0,"property_type":"house","year":2009.0,"bedrooms":3.0,"bathrooms":1.0,"parking_space":2.0},{"property_id":91773.0,"lat":-37.985291,"lng":145.041004,"addr_street":"67 Oak Street","price":21920000.0,"property_type":"house","year":2015.0,"bedrooms":3.0,"bathrooms":2.0,"parking_space":2.0},{"property_id":86561.0,"lat":-37.9266159,"lng":145.0032561,"addr_street":"31 Champion Street","price":22200000.0,"property_type":"house","year":2011.0,"bedrooms":3.0,"bathrooms":1.0,"parking_space":3.0},{"property_id":73167.0,"lat":-37.86804,"lng":145.292175,"addr_street":"2 Shirley Court","price":5785000.0,"property_type":"house","year":2012.0,"bedrooms":3.0,"bathrooms":1.0,"parking_space":2.0},{"property_id":61479.0,"lat":-37.826534,"lng":145.223494,"addr_street":"2 Hammond Street","price":4818000.0,"property_type":"house","year":2011.0,"bedrooms":3.0,"bathrooms":1.0,"parking_space":2.0},{"property_id":38017.0,"lat":-37.773122,"lng":145.017149,"addr_street":"155 Rathmines Street","price":7608000.0,"property_type":"house","year":2014.0,"bedrooms":2.0,"bathrooms":1.0,"parking_space":1.0},{"property_id":10148.0,"lat":-37.794493,"lng":144.923266,"addr_street":"166 Newman Street","price":8030000.0,"property_type":"house","year":2011.0,"bedrooms":4.0,"bathrooms":2.0,"parking_space":2.0},{"property_id":31837.0,"lat":-37.749975,"lng":145.01748,"addr_street":"13 Mornane Street","price":13840000.0,"property_type":"house","year":2015.0,"bedrooms":3.0,"bathrooms":1.0,"parking_space":2.0},{"property_id":24192.0,"lat":-37.694884,"lng":144.965909,"addr_street":"23 Brian Street","price":4528000.0,"property_type":"house","year":2015.0,"bedrooms":3.0,"bathrooms":1.0,"parking_space":1.0},{"property_id":42674.0,"lat":-37.750531,"lng":145.062845,"addr_street":"9 Olive Grove","price":18480000.0,"property_type":"house","year":2015.0,"bedrooms":5.0,"bathrooms":2.0,"parking_space":1.0},{"property_id":40624.0,"lat":-37.685718,"lng":145.056466,"addr_street":"41 Josef Avenue","price":9280000.0,"property_type":"house","year":2016.0,"bedrooms":3.0,"bathrooms":2.0,"parking_space":1.0},{"property_id":50602.0,"lat":-37.760029,"lng":145.102754,"addr_street":"6 Morang","price":6655000.0,"property_type":"house","year":2011.0,"bedrooms":3.0,"bathrooms":1.0,"parking_space":1.0},{"property_id":38364.0,"lat":-37.779621,"lng":145.015366,"addr_street":"54 Rathmines Street","price":6642000.0,"property_type":"house","year":2012.0,"bedrooms":2.0,"bathrooms":1.0,"parking_space":1.0},{"property_id":8504.0,"lat":-37.747549,"lng":144.745619,"addr_street":"4 Woodbridge Place","price":4860000.0,"property_type":"house","year":2010.0,"bedrooms":2.0,"bathrooms":2.0,"parking_space":1.0},{"property_id":4911.0,"lat":-37.86441422,"lng":144.8287659,"addr_street":"146 Civic Parade","price":6888000.0,"property_type":"house","year":2009.0,"bedrooms":3.0,"bathrooms":1.0,"parking_space":1.0},{"property_id":75687.0,"lat":-37.90767288,"lng":145.0780335,"addr_street":"13 Austin Street","price":8694000.0,"property_type":"house","year":2009.0,"bedrooms":3.0,"bathrooms":2.0,"parking_space":2.0},{"property_id":6947.0,"lat":-37.78019714,"lng":144.8216705,"addr_street":"7 Hamel Street","price":3830000.0,"property_type":"house","year":2009.0,"bedrooms":5.0,"bathrooms":3.0,"parking_space":2.0},{"property_id":35100.0,"lat":-37.727017,"lng":145.004837,"addr_street":"5 Powell Street","price":14480000.0,"property_type":"house","year":2016.0,"bedrooms":3.0,"bathrooms":1.0,"parking_space":3.0},{"property_id":27923.0,"lat":-37.594123,"lng":144.906332,"addr_street":"9 Grove Road","price":3680000.0,"property_type":"house","year":2014.0,"bedrooms":3.0,"bathrooms":2.0,"parking_space":2.0},{"property_id":59360.0,"lat":-37.82535,"lng":145.197724,"addr_street":"12 Norman Street","price":6480000.0,"property_type":"house","year":2010.0,"bedrooms":3.0,"bathrooms":2.0,"parking_space":1.0},{"property_id":80181.0,"lat":-37.9832009,"lng":145.1690476,"addr_street":"37 Kingsclere Avenue","price":5330000.0,"property_type":"house","year":2013.0,"bedrooms":3.0,"bathrooms":1.0,"parking_space":1.0},{"property_id":24346.0,"lat":-37.704476,"lng":144.967627,"addr_street":"34 William Street","price":7361000.0,"property_type":"house","year":2013.0,"bedrooms":3.0,"bathrooms":1.0,"parking_space":3.0},{"property_id":69811.0,"lat":-37.860933,"lng":145.09665,"addr_street":"25 Carlyle Street","price":16350000.0,"property_type":"house","year":2011.0,"bedrooms":5.0,"bathrooms":3.0,"parking_space":3.0},{"property_id":76715.0,"lat":-37.919796,"lng":145.131572,"addr_street":"26 Evelyn Street","price":3509000.0,"property_type":"house","year":2008.0,"bedrooms":3.0,"bathrooms":1.0,"parking_space":1.0},{"property_id":94366.0,"lat":-37.96099,"lng":145.082383,"addr_street":"35 St Georges Crescent","price":2600000.0,"property_type":"house","year":2016.0,"bedrooms":3.0,"bathrooms":2.0,"parking_space":1.0},{"property_id":34046.0,"lat":-37.712422,"lng":144.987507,"addr_street":"18 Gill Street","price":11050000.0,"property_type":"house","year":2016.0,"bedrooms":2.0,"bathrooms":1.0,"parking_space":2.0},{"property_id":94524.0,"lat":-37.90090561,"lng":145.0370483,"addr_street":"1\/31 Malane Street","price":10251000.0,"property_type":"house","year":2008.0,"bedrooms":3.0,"bathrooms":1.0,"parking_space":1.0},{"property_id":46752.0,"lat":-37.71593,"lng":145.160837,"addr_street":"19 Hartland Way","price":7440000.0,"property_type":"house","year":2013.0,"bedrooms":4.0,"bathrooms":2.0,"parking_space":2.0},{"property_id":76832.0,"lat":-37.93254089,"lng":145.1269074,"addr_street":"4 McMillan Street","price":3420000.0,"property_type":"house","year":2007.0,"bedrooms":3.0,"bathrooms":1.0,"parking_space":1.0},{"property_id":55244.0,"lat":-37.8466,"lng":145.082064,"addr_street":"2\/233 Highfield Road","price":11960000.0,"property_type":"house","year":2010.0,"bedrooms":3.0,"bathrooms":2.0,"parking_space":2.0},{"property_id":32228.0,"lat":-37.74498,"lng":145.011298,"addr_street":"20 Erval Avenue","price":7800000.0,"property_type":"house","year":2012.0,"bedrooms":3.0,"bathrooms":1.0,"parking_space":2.0},{"property_id":92451.0,"lat":-37.983109,"lng":145.081799,"addr_street":"81 Lower Dandenong Road","price":5688000.0,"property_type":"house","year":2010.0,"bedrooms":4.0,"bathrooms":2.0,"parking_space":2.0},{"property_id":null,"lat":null,"lng":null,"addr_street":null,"price":null,"property_type":null,"year":null,"bedrooms":null,"bathrooms":null,"parking_space":null},{"property_id":45409.0,"lat":-37.685771,"lng":145.114695,"addr_street":"7 Diamond Boulevard","price":6020000.0,"property_type":"house","year":2014.0,"bedrooms":2.0,"bathrooms":1.0,"parking_space":1.0},{"property_id":56432.0,"lat":-37.845743,"lng":145.099078,"addr_street":"24 Iris Street","price":16640000.0,"property_type":"house","year":2014.0,"bedrooms":4.0,"bathrooms":2.0,"parking_space":2.0},{"property_id":73703.0,"lat":-37.856995,"lng":145.275299,"addr_street":"42 Rowson Street","price":5200000.0,"property_type":"house","year":2009.0,"bedrooms":3.0,"bathrooms":1.0,"parking_space":1.0},{"property_id":8419.0,"lat":-37.76467,"lng":144.78611,"addr_street":"31 Minvi Terrace","price":6456000.0,"property_type":"house","year":2013.0,"bedrooms":4.0,"bathrooms":2.0,"parking_space":2.0},{"property_id":65261.0,"lat":-37.804777,"lng":145.311647,"addr_street":"26 Mountain View Road","price":7280000.0,"property_type":"house","year":2015.0,"bedrooms":4.0,"bathrooms":2.0,"parking_space":3.0},{"property_id":2476.0,"lat":-37.78258133,"lng":144.8817902,"addr_street":"72 Mitchell Street","price":5820000.0,"property_type":"house","year":2008.0,"bedrooms":3.0,"bathrooms":1.0,"parking_space":3.0},{"property_id":663.0,"lat":-37.805733,"lng":144.888299,"addr_street":"23 Henry Street","price":16800000.0,"property_type":"house","year":2016.0,"bedrooms":3.0,"bathrooms":1.0,"parking_space":1.0},{"property_id":36390.0,"lat":-37.672732,"lng":145.024163,"addr_street":"31 David Street","price":7080000.0,"property_type":"house","year":2010.0,"bedrooms":3.0,"bathrooms":1.0,"parking_space":1.0},{"property_id":47306.0,"lat":-37.700231,"lng":145.133774,"addr_street":"53 Progress Road","price":9911000.0,"property_type":"house","year":2016.0,"bedrooms":4.0,"bathrooms":2.0,"parking_space":2.0},{"property_id":16907.0,"lat":-37.698489,"lng":144.918366,"addr_street":"25 Trevannion Court","price":2700000.0,"property_type":"house","year":2011.0,"bedrooms":3.0,"bathrooms":1.0,"parking_space":1.0},{"property_id":53740.0,"lat":-37.813383,"lng":145.00387,"addr_street":"75 Laity Street","price":18040000.0,"property_type":"house","year":2015.0,"bedrooms":3.0,"bathrooms":3.0,"parking_space":1.0},{"property_id":56072.0,"lat":-37.85564,"lng":145.095909,"addr_street":"1 Pinoak Close","price":6992000.0,"property_type":"house","year":2013.0,"bedrooms":4.0,"bathrooms":2.0,"parking_space":2.0},{"property_id":80798.0,"lat":-37.976945,"lng":145.227851,"addr_street":"14 Parkview Close","price":4400000.0,"property_type":"house","year":2014.0,"bedrooms":5.0,"bathrooms":2.0,"parking_space":2.0},{"property_id":73036.0,"lat":-37.868232,"lng":145.285899,"addr_street":"162 Dorset Road","price":9044000.0,"property_type":"house","year":2015.0,"bedrooms":3.0,"bathrooms":2.0,"parking_space":2.0},{"property_id":2047.0,"lat":-37.774223,"lng":144.872568,"addr_street":"24 Myrtle Drive","price":16050000.0,"property_type":"house","year":2015.0,"bedrooms":4.0,"bathrooms":2.0,"parking_space":2.0},{"property_id":82618.0,"lat":-37.908146,"lng":145.251751,"addr_street":"18 Valleyview Drive","price":5440000.0,"property_type":"house","year":2016.0,"bedrooms":3.0,"bathrooms":1.0,"parking_space":2.0},{"property_id":12017.0,"lat":-37.706969,"lng":144.761124,"addr_street":"1 Torro Walk","price":8784000.0,"property_type":"house","year":2014.0,"bedrooms":4.0,"bathrooms":2.0,"parking_space":2.0},{"property_id":31370.0,"lat":-37.75376892,"lng":145.0023346,"addr_street":"6 Pender Street","price":8834000.0,"property_type":"house","year":2008.0,"bedrooms":4.0,"bathrooms":1.0,"parking_space":2.0},{"property_id":37856.0,"lat":-37.647931,"lng":145.04994,"addr_street":"9 Pindari Avenue","price":5952000.0,"property_type":"house","year":2015.0,"bedrooms":3.0,"bathrooms":1.0,"parking_space":1.0},{"property_id":87959.0,"lat":-37.943701,"lng":145.008058,"addr_street":"8 Kyarra Street","price":28900000.0,"property_type":"house","year":2011.0,"bedrooms":5.0,"bathrooms":2.0,"parking_space":2.0},{"property_id":82026.0,"lat":-37.99276733,"lng":145.2354431,"addr_street":"27 Matipo Street","price":3192000.0,"property_type":"house","year":2008.0,"bedrooms":3.0,"bathrooms":1.0,"parking_space":1.0},{"property_id":25293.0,"lat":-37.604934,"lng":144.915847,"addr_street":"13 Classic Place","price":5915000.0,"property_type":"house","year":2012.0,"bedrooms":4.0,"bathrooms":2.0,"parking_space":2.0},{"property_id":35525.0,"lat":-37.709941,"lng":145.017049,"addr_street":"73 Crookston Road","price":8245000.0,"property_type":"house","year":2010.0,"bedrooms":3.0,"bathrooms":1.0,"parking_space":1.0},{"property_id":54996.0,"lat":-37.83559,"lng":145.07555,"addr_street":"13 Cooloongatta Road","price":18960000.0,"property_type":"house","year":2014.0,"bedrooms":4.0,"bathrooms":3.0,"parking_space":2.0},{"property_id":56032.0,"lat":-37.846593,"lng":145.059221,"addr_street":"930 Toorak Road","price":5610000.0,"property_type":"house","year":2015.0,"bedrooms":4.0,"bathrooms":2.0,"parking_space":3.0},{"property_id":62605.0,"lat":-37.838161,"lng":145.240183,"addr_street":"17 Dirkala Avenue","price":7479000.0,"property_type":"house","year":2016.0,"bedrooms":4.0,"bathrooms":3.0,"parking_space":2.0},{"property_id":7798.0,"lat":-37.780168,"lng":144.804432,"addr_street":"24 Maxweld Street","price":5850000.0,"property_type":"house","year":2015.0,"bedrooms":3.0,"bathrooms":1.0,"parking_space":1.0},{"property_id":10817.0,"lat":-37.79550934,"lng":144.9195862,"addr_street":"7 McNamara Mews","price":5150000.0,"property_type":"house","year":2009.0,"bedrooms":2.0,"bathrooms":1.0,"parking_space":1.0},{"property_id":94954.0,"lat":-37.916897,"lng":145.024505,"addr_street":"172 Centre Road","price":7650000.0,"property_type":"house","year":2010.0,"bedrooms":5.0,"bathrooms":1.0,"parking_space":2.0},{"property_id":22213.0,"lat":-37.748965,"lng":144.960905,"addr_street":"2 Chandos Street","price":9401000.0,"property_type":"house","year":2011.0,"bedrooms":4.0,"bathrooms":1.0,"parking_space":2.0},{"property_id":16106.0,"lat":-37.70723343,"lng":144.8781433,"addr_street":"5\/3 Broadmeadows Road","price":3990000.0,"property_type":"house","year":2010.0,"bedrooms":2.0,"bathrooms":1.0,"parking_space":1.0},{"property_id":81774.0,"lat":-37.987333,"lng":145.238491,"addr_street":"134 Kidds Road","price":3950000.0,"property_type":"house","year":2016.0,"bedrooms":3.0,"bathrooms":1.0,"parking_space":2.0},{"property_id":null,"lat":null,"lng":null,"addr_street":null,"price":null,"property_type":null,"year":null,"bedrooms":null,"bathrooms":null,"parking_space":null},{"property_id":87949.0,"lat":-37.939504,"lng":145.009831,"addr_street":"78 Thomas Street","price":9420000.0,"property_type":"house","year":2016.0,"bedrooms":4.0,"bathrooms":2.0,"parking_space":2.0},{"property_id":34504.0,"lat":-37.69820786,"lng":145.0217896,"addr_street":"28 Daleglen Street","price":2750000.0,"property_type":"house","year":2007.0,"bedrooms":1.0,"bathrooms":1.0,"parking_space":1.0},{"property_id":14470.0,"lat":-37.743204,"lng":144.914751,"addr_street":"43 Salmon Avenue","price":12100000.0,"property_type":"house","year":2010.0,"bedrooms":3.0,"bathrooms":2.0,"parking_space":2.0},{"property_id":15482.0,"lat":-37.740334,"lng":144.910869,"addr_street":"8 Carnarvon Road","price":19320000.0,"property_type":"house","year":2014.0,"bedrooms":4.0,"bathrooms":3.0,"parking_space":2.0},{"property_id":61446.0,"lat":-37.811888,"lng":145.224013,"addr_street":"19 Nelson Street","price":13200000.0,"property_type":"house","year":2014.0,"bedrooms":2.0,"bathrooms":1.0,"parking_space":1.0},{"property_id":36548.0,"lat":-37.66352,"lng":145.027952,"addr_street":"7 Derna Crescent","price":6019000.0,"property_type":"house","year":2016.0,"bedrooms":3.0,"bathrooms":1.0,"parking_space":2.0},{"property_id":55154.0,"lat":-37.83659363,"lng":145.0882721,"addr_street":"18 Lockhart Street","price":11400000.0,"property_type":"house","year":2009.0,"bedrooms":3.0,"bathrooms":2.0,"parking_space":0.0},{"property_id":25304.0,"lat":-37.581685,"lng":144.918554,"addr_street":"13 Girraween Crescent","price":7150000.0,"property_type":"house","year":2011.0,"bedrooms":4.0,"bathrooms":2.0,"parking_space":2.0},{"property_id":76382.0,"lat":-37.901612,"lng":145.10401,"addr_street":"7 Henry St","price":8925000.0,"property_type":"house","year":2009.0,"bedrooms":3.0,"bathrooms":2.0,"parking_space":2.0},{"property_id":5072.0,"lat":-37.85999,"lng":144.821458,"addr_street":"24 Lowe Avenue","price":8515000.0,"property_type":"house","year":2014.0,"bedrooms":3.0,"bathrooms":2.0,"parking_space":2.0},{"property_id":25897.0,"lat":-37.608603,"lng":144.919067,"addr_street":"20 Eldergreen Circuit","price":3260000.0,"property_type":"house","year":2015.0,"bedrooms":3.0,"bathrooms":2.0,"parking_space":1.0},{"property_id":10035.0,"lat":-37.784678,"lng":144.932695,"addr_street":"13 Bryant Street","price":11820000.0,"property_type":"house","year":2010.0,"bedrooms":4.0,"bathrooms":2.0,"parking_space":1.0},{"property_id":48985.0,"lat":-37.803008,"lng":145.077889,"addr_street":"124 Belmore Road","price":9240000.0,"property_type":"house","year":2015.0,"bedrooms":2.0,"bathrooms":1.0,"parking_space":2.0},{"property_id":19446.0,"lat":-37.663934,"lng":144.932787,"addr_street":"44 Westmere Crescent","price":5780000.0,"property_type":"house","year":2016.0,"bedrooms":3.0,"bathrooms":1.0,"parking_space":2.0},{"property_id":61650.0,"lat":-37.797413,"lng":145.242236,"addr_street":"26 Sunhill Avenue","price":4710000.0,"property_type":"house","year":2011.0,"bedrooms":3.0,"bathrooms":1.0,"parking_space":2.0},{"property_id":95835.0,"lat":-37.930116,"lng":145.049479,"addr_street":"46 Tucker Road","price":15000000.0,"property_type":"house","year":2016.0,"bedrooms":2.0,"bathrooms":1.0,"parking_space":3.0},{"property_id":86032.0,"lat":-37.917029,"lng":145.004246,"addr_street":"116 Roslyn Street","price":19600000.0,"property_type":"house","year":2014.0,"bedrooms":3.0,"bathrooms":2.0,"parking_space":2.0},{"property_id":83893.0,"lat":-37.850932,"lng":145.004881,"addr_street":"33 Wrights Terrace","price":12894000.0,"property_type":"house","year":2011.0,"bedrooms":2.0,"bathrooms":1.0,"parking_space":1.0},{"property_id":9422.0,"lat":-37.852223,"lng":144.719244,"addr_street":"243 Sayers Rd","price":3600000.0,"property_type":"house","year":2012.0,"bedrooms":4.0,"bathrooms":2.0,"parking_space":3.0},{"property_id":14456.0,"lat":-37.749479,"lng":144.89411,"addr_street":"42 Bradshaw Street","price":11732000.0,"property_type":"house","year":2012.0,"bedrooms":2.0,"bathrooms":1.0,"parking_space":2.0},{"property_id":25336.0,"lat":-37.606518,"lng":144.929971,"addr_street":"13 Princetown Avenue","price":3195000.0,"property_type":"house","year":2013.0,"bedrooms":3.0,"bathrooms":2.0,"parking_space":1.0},{"property_id":70224.0,"lat":-37.86454773,"lng":145.1022949,"addr_street":"6 Scenic Drive","price":10380000.0,"property_type":"house","year":2008.0,"bedrooms":4.0,"bathrooms":2.0,"parking_space":2.0},{"property_id":54225.0,"lat":-37.829543,"lng":145.031837,"addr_street":"2 Summerlea Grove","price":42670000.0,"property_type":"house","year":2009.0,"bedrooms":5.0,"bathrooms":3.0,"parking_space":1.0},{"property_id":29239.0,"lat":-37.768043,"lng":144.990021,"addr_street":"108 Arthurton Road","price":7800000.0,"property_type":"house","year":2015.0,"bedrooms":2.0,"bathrooms":1.0,"parking_space":1.0},{"property_id":4569.0,"lat":-37.847281,"lng":144.863674,"addr_street":"6 Blenheim Road","price":3420000.0,"property_type":"house","year":2012.0,"bedrooms":3.0,"bathrooms":1.0,"parking_space":0.0},{"property_id":51257.0,"lat":-37.78980255,"lng":145.1429749,"addr_street":"31 Wetherby Road","price":4336000.0,"property_type":"house","year":2009.0,"bedrooms":4.0,"bathrooms":2.0,"parking_space":0.0},{"property_id":92785.0,"lat":-37.987102,"lng":145.072471,"addr_street":"16 Third Street","price":18340000.0,"property_type":"house","year":2015.0,"bedrooms":5.0,"bathrooms":2.0,"parking_space":3.0},{"property_id":63058.0,"lat":-37.824869,"lng":145.243177,"addr_street":"68A Campbell Street","price":3250000.0,"property_type":"house","year":2012.0,"bedrooms":4.0,"bathrooms":2.0,"parking_space":1.0},{"property_id":81468.0,"lat":-37.98904037,"lng":145.2224731,"addr_street":"7 Masters Street","price":14170000.0,"property_type":"house","year":2009.0,"bedrooms":2.0,"bathrooms":1.0,"parking_space":1.0},{"property_id":60592.0,"lat":-37.835703,"lng":145.20363,"addr_street":"21 Ellad Close","price":6825000.0,"property_type":"house","year":2012.0,"bedrooms":3.0,"bathrooms":1.0,"parking_space":1.0},{"property_id":81268.0,"lat":-37.97286987,"lng":145.2155304,"addr_street":"4\/4A Vizard Street","price":2336000.0,"property_type":"house","year":2006.0,"bedrooms":2.0,"bathrooms":1.0,"parking_space":0.0},{"property_id":94157.0,"lat":-38.07544,"lng":145.132481,"addr_street":"22 Rigby Street","price":4810000.0,"property_type":"house","year":2012.0,"bedrooms":3.0,"bathrooms":1.0,"parking_space":2.0},{"property_id":37676.0,"lat":-37.643134,"lng":145.060813,"addr_street":"68 Loxton Terrace","price":4932000.0,"property_type":"house","year":2015.0,"bedrooms":3.0,"bathrooms":1.0,"parking_space":2.0},